State,District,Taluka,Locality,Street,Landmark,Facility Name,Facility Type,Latitude,longitude,Region Indicator,Operational Status,Ownership Authority
Telangana,Adilabad,Utnoor,Utnoor,Boyawada,Near Little Flower School,"Community Health Centre, Utnoor",Community Health Center,19.3673515,78.7690499,Rural,Functional,State Government
Telangana,Adilabad,Boath,,Near Water Tank,,"Community Health Centre,Boath",Community Health Center,19.3399205,78.3216329,Rural,Functional,State Government
Telangana,Adilabad,Adilabad URBAN,Adilabad Town,RIMS Hospital Adilabad,RIMS Hospital Adilabad beside Auditorium,"Government Ayurvedic Dispensary, Adilabad (HQ) (Regular)",Ayurveda dispensary,19.6639678,78.5261109,Urban,Functional,State Government
Telangana,Adilabad,Bela,Bela,Main Road Shivaji Chowk,Near Shivaji Chowk,"Government Ayurvedic Dispensary, Bela (Regular)",Ayurveda dispensary,19.7181264,78.7732132,Rural,Functional,State Government
Telangana,Adilabad,Bazarhathnoor,Bheempur,Police Station Road,Beside ZPHS School,"Government Ayurvedic Dispensary, Bheempur (NRHM)",Ayurveda dispensary,19.7730129,78.4218988,Rural,Functional,State Government
Telangana,Adilabad,Utnoor,Danthanpally Village,"Musleem Colony, Danthanpally",Beside Raithuvedika,"Government Ayurvedic Dispensary, Danthanpally (NRHM)",Ayurveda dispensary,19.328812,78.8174876,Rural,Functional,State Government
Telangana,Adilabad,Inderavelly,Dasnapur,SC Wada,GramaPanchayath & PulajiBaba Temple,"Government Ayurvedic Dispensary, Dasnapur (Regular)",Ayurveda dispensary,19.4470643,78.6131561,Rural,Functional,State Government
Telangana,Adilabad,Bazarhathnoor,New Dehagoan,"Anganvadi, Shanthinagar",Beside Anganwadi,"Government Ayurvedic Dispensary, Dehagaon (Regular)",Ayurveda dispensary,19.4735763,78.3804282,Rural,Functional,State Government
Telangana,Adilabad,Utnoor,Hasnapur,Maruguda,Main Road Maruguda Hasnapur,"Government Ayurvedic Dispensary, Hasnapur (NRHM)",Ayurveda dispensary,19.4139615,78.800765,Rural,Functional,State Government
Telangana,Adilabad,Ichoda,Ichoda Village,Islampura Street,Sirchalma Road,"Government Ayurvedic Dispensary, Ichoda (Regular)",Ayurveda dispensary,19.4223691,78.4537257,Rural,Functional,State Government
Telangana,Adilabad,GADIGUDA,Jhari,Lokari to Jhari main Road,Beside Ashram School,"Government Ayurvedic Dispensary, Jhari (NRHM)",Ayurveda dispensary,19.5821837,78.8473921,Rural,Functional,State Government
Telangana,Adilabad,Talamadugu,Kuchulapur,Savari Bunglow,Opiste Post office,"Government Ayurvedic Dispensary, Kuchulapur (Regular)",Ayurveda dispensary,19.6813745,78.3615594,Rural,Functional,State Government
Telangana,Adilabad,Gudihathnoor,Mannur,Beside Gramapanchayth Building,Shivaji Chowk,"Government Ayurvedic Dispensary, Mannur (Regular)",Ayurveda dispensary,19.4846542,78.4978494,Rural,Functional,State Government
Telangana,Adilabad,Narnoor,narnoor,Ambedkar Nagar Main Road narnoor,Near by PH Sub Center Narnoor (PHC NNR),"Government Ayurvedic Dispensary, Narnoor (Regular)",Ayurveda dispensary,19.501931,78.849074,Rural,Functional,State Government
Telangana,Adilabad,Ichoda,Narsapur T,Main Road Narsapur T,Sirichalam Road,"Government Ayurvedic Dispensary, Narsapur -T (NRHM)",Ayurveda dispensary,19.3500585,78.5048795,Rural,Functional,State Government
Telangana,Adilabad,Boath,Sonala Village,Main Road Sonala,PHC Buliding,"Government Ayurvedic Dispensary, Sonala (Regular)",Ayurveda dispensary,19.417427,78.3144667,Rural,Functional,State Government
Telangana,Adilabad,Talamadugu,Thalamadugu,Main Road Thalamadugu,Opposite Government School,"Government Ayurvedic Dispensary, Thalamadugu (NRHM)",Ayurveda dispensary,19.6418302,78.3953984,Rural,Functional,State Government
Telangana,Adilabad,Tamsi,Thamsi-B,Sunkadhi Street,Sunkadhi Road,"Government Ayurvedic Dispensary, Thamsi (NRHM)",Ayurveda dispensary,19.6817598,78.4250903,Rural,Functional,State Government
Telangana,Adilabad,Neradigonda,Boath,Main Road,Beside GramaPanchayath,"Government Ayurvedic Dispensary, Wankidi (Neredugonda) (Regular)",Ayurveda dispensary,19.2289093,78.393785,Rural,Functional,State Government
Telangana,Adilabad,Jainath,Zainath,Bus Stand Area,BUsstand,"Government Ayurvedic Dispensary, Zainath (NRHM)",Ayurveda dispensary,19.7306996,78.6427304,Rural,Functional,State Government
Telangana,Adilabad,Adilabad URBAN,Adilabad Town,RIMS Hospital Adilabad,RIMS Hospital Adilabad beside Auditorium,"Government Homoeo Dispensary, Adilabad (HQ) (Regular)",Homoeopathy dispensary,19.6639678,78.5261109,Urban,Functional,State Government
Telangana,Adilabad,AIDILABAD RURAL,Ankoli,Main Road Ankoli,Beside Rammandir,"Government Homoeo Dispensary, Ankoli (NRHM)",Homoeopathy dispensary,19.6070534,78.5719557,Rural,Functional,State Government
Telangana,Adilabad,Bazarhathnoor,Bazarhathnoor,Bus stand area,Beside MRO Office,"Government Homoeo Dispensary, Bazarhathnoor (NRHM)",Homoeopathy dispensary,19.4590583,78.3502082,Rural,Functional,State Government
Telangana,Adilabad,Neradigonda,Neredigonda,Oppiste ZPHS Neredigonda,Neredigonda,"Government Homoeo Dispensary, Neredugunda (NRHM)",Homoeopathy dispensary,19.3010014,78.4025329,Rural,Functional,State Government
Telangana,Adilabad,Utnoor,Utnoor,"Boyawada,utnoor",Beside Additional DMHO Office,"Government Homoeo Dispensary, Utnoor (Regular)",Homoeopathy dispensary,19.367329,78.7688504,Rural,Functional,State Government
Telangana,Adilabad,Adilabad URBAN,Adilabad Town,RIMS Hospital Adilabad,"RIMS Premises,Beside Auditorium","Government Unani Dispensary, Adilabad (HQ) (Regular)",Unani  dispensary,19.6639678,78.5261109,Urban,Functional,State Government
Telangana,Adilabad,Gudihathnoor,Gudihatnoor,Muthnur Road,Near Bhagiratha Tank RTC Backside Busstand,"Government Unani Dispensary, Gudihathnoor (NRHM)",Unani  dispensary,19.5288306,78.5104637,Rural,Functional,State Government
Telangana,Adilabad,Inderavelly,"Ambedkarchowk, Bheemnagar",Bheemnagar,ambedkarchowk,"Government Unani Dispensary, Indravelly (NRHM)",Unani  dispensary,19.4924021,78.6700797,Rural,Functional,State Government
Telangana,Adilabad,Utnoor,Utnoor,Boyawada,Little Flower School,"Government Unani Dispensary, Utnoor (NRHM)",Unani  dispensary,19.3657817,78.7729478,Rural,Functional,State Government
Telangana,Adilabad,AIDILABAD RURAL,Ankoli,Main Road towards Adilabad,Near ZP High School,"Primary Health Centre, Ankoli",Primary Health Centre,19.6013846,78.5604069,Rural,Functional,State Government
Telangana,Adilabad,Bazarhathnoor,Bazarhatnur,New colony,Near Z.P High school,"Primary Health Centre, Bazarhathnoor",Primary Health Centre,19.4583153,78.3522213,Rural,Functional,State Government
Telangana,Adilabad,Bela,Bela,Bela,Old Busstand,"Primary Health Centre, Bela",Primary Health Centre,19.7189177,78.7717061,Rural,Functional,State Government
Telangana,Adilabad,BHEEMPUR,Bheempur,School Road,UPS School,"Primary Health Centre, Bheempur T",Primary Health Centre,19.774933,78.4219005,Rural,Functional,State Government
Telangana,Adilabad,Utnoor,"Muslimguda, Danthanpally","Muslimguda, Danthanpally","Muslimguda, Danthanpally","Primary Health Centre, Danthanpally",Primary Health Centre,19.3259696,78.8198591,Rural,Functional,State Government
Telangana,Adilabad,GADIGUDA,Gadiguda,Main Road,SC Hostel,"Primary Health Centre, Gadiguda",Primary Health Centre,19.6007413,78.9231667,Rural,Functional,State Government
Telangana,Adilabad,Jainath,New Colony,New Colony,Near HIgh School,"Primary Health Centre, Gimma",Primary Health Centre,19.777591,78.5419503,Rural,Functional,State Government
Telangana,Adilabad,Gudihathnoor,Gudi Hathnoor,,Behind Busstand,"Primary Health Centre, Gudihathnoor",Primary Health Centre,19.5292668,78.5121323,Rural,Functional,State Government
Telangana,Adilabad,Utnoor,Maruguda Hasnapur,Maruguda Hasnapur,Maruguda Hasnapur,"Primary Health Centre, Hasnapur",Primary Health Centre,19.4177209,78.8099472,Rural,Functional,State Government
Telangana,Adilabad,Ichoda,Islampura Echoda,Sirichalma Road,Near NH 7,"Primary Health Centre, Ichoda",Primary Health Centre,19.4276033,78.4553013,Rural,Functional,State Government
Telangana,Adilabad,Jainath,Jainath,Near Bus Stand,Opp 108 Office,"Primary Health Centre, Jainath",Primary Health Centre,19.7327349,78.6427107,Rural,Functional,State Government
Telangana,Adilabad,GADIGUDA,Jhari,Main Road,Near Ashram High School,"Primary Health Centre, Jhari",Primary Health Centre,19.58182778,78.85810375,Rural,Functional,State Government
Telangana,Adilabad,Ichoda,Narsapur-T,New Colony,Sirichalma road,"Primary Health Centre, Narsapur",Primary Health Centre,17.7394297,78.2846303,Rural,Functional,State Government
Telangana,Adilabad,Utnoor,"Vodder colony, Shyampur","Vodder colony, Shyampur","Vodder colony, Shyampur","Primary Health Centre, Shyampur",Primary Health Centre,19.4252185,78.7419528,Rural,Functional,State Government
Telangana,Adilabad,Boath,"New colony, Sonal",Ramalayam Street,Near Pragathi Primary School (Private),"Primary Health Centre, Sonala",Primary Health Centre,19.4179344,78.3166526,Rural,Functional,State Government
Telangana,Adilabad,Bela,Syedpur,Syedpur,,"Primary Health Centre, Syedpur",Primary Health Centre,19.6325419,78.7277814,Rural,Functional,State Government
Telangana,Adilabad,Talamadugu,Talamadugu,1st Street,Beside Ambedkar Statue,"Primary Health Centre, Talamadugu",Primary Health Centre,19.642647,78.3934657,Rural,Functional,State Government
Telangana,Adilabad,Tamsi,Tamsi,Main Road,Electricity Sub-station,"Primary Health Centre, Tamsi",Primary Health Centre,19.6877718,78.4226112,Rural,Functional,State Government
Telangana,Adilabad,Adilabad URBAN,Adilabad,Collector Chowk,Near Dasnapur Petrol pump,RIMS Medical College Hospital,Medical Colleges Hospital,19.6621494,78.5265235,Urban,Functional,State Government
Telangana,Adilabad,Jainath,Anandpur,Road Side,Village Entry Left Side,"SubCentre, Anandpur",SubCentre,19.1415659,79.7112406,Rural,Functional,State Government
Telangana,Adilabad,BHEEMPUR,Andarband,ST Wada,G.P. Building,"SubCentre, Andarband",SubCentre,19.7537793,78.3785343,Rural,Functional,State Government
Telangana,Adilabad,Boath,Andur,Narayanpur Road,"Near G.P,","SubCentre, Andur",SubCentre,19.291793,78.298852,Rural,Functional,Private - for profit
Telangana,Adilabad,AIDILABAD RURAL,Ankoli,Ankoli,Near School,"SubCentre, Ankoli",SubCentre,19.6013846,78.5604069,Rural,Functional,Private - for profit
Telangana,Adilabad,GADIGUDA,Main Road,,Near Ashrama High School Girls,"SubCentre, Arjuni",SubCentre,19.5971653,78.8184432,Rural,Functional,State Government
Telangana,Adilabad,BHEEMPUR,Arli,Primary School,Near Primary School,"SubCentre, Arli",SubCentre,19.0955521,78.1072634,Rural,Functional,State Government
Telangana,Adilabad,Bazarhathnoor,"Muthyampet,Bazarhatnur",Dam Road,Near Anganwadi center,"SubCentre, Bazarhathnoor",SubCentre,19.4583153,78.3522213,Rural,Functional,State Government
Telangana,Adilabad,Utnoor,"Bhupet road,","Bhupet road,","Bhupet road,","SubCentre, Beersaipet",SubCentre,19.288196,78.8134873,Rural,Functional,State Government
Telangana,Adilabad,Bela,Bela,Bela,New Busstand,"SubCentre, Bela",SubCentre,19.7189177,78.7717061,Rural,Functional,State Government
Telangana,Adilabad,Talamadugu,Barampur,1st Street,G.P Back Side,"SubCentre, Bharampur",SubCentre,19.5969577,78.4119492,Rural,Functional,State Government
Telangana,Adilabad,BHEEMPUR,Bheempoor,School Road,Near UPS School,"SubCentre, Bheempur",SubCentre,19.774933,78.4219005,Rural,Functional,State Government
Telangana,Adilabad,AIDILABAD RURAL,Bheemsari,Bheemsari,Anganwadi Center,"SubCentre, Bheemsari",SubCentre,19.6982837,78.5284606,Rural,Functional,Private - for profit
Telangana,Adilabad,Bazarhathnoor,Bhutai K,Road No.01,Sarpanch House,"SubCentre, Bhutai",SubCentre,19.504551,78.333914,Rural,Functional,State Government
Telangana,Adilabad,Boath,BOath,cinema Road,Near Godown,"SubCentre, Boath",SubCentre,19.3399205,78.3216329,Rural,Functional,Private - for profit
Telangana,Adilabad,Jainath,"Shivalayam,",,Beside Railway Track,"SubCentre, Boraj",SubCentre,19.742402,78.5419503,Rural,Functional,State Government
Telangana,Adilabad,Ichoda,Borigama,Indhrang Colony,Near AWWC,"SubCentre, Borigam",SubCentre,19.6488157,78.7532884,Rural,Functional,Private - for profit
Telangana,Adilabad,AIDILABAD RURAL,Chanda,Chada-T,Near School,"SubCentre, Chanda",SubCentre,19.7112915,78.5483395,Rural,Functional,State Government
Telangana,Adilabad,Utnoor,school road,school road,,"SubCentre, Chanduri",SubCentre,19.451559,78.799825,Rural,Functional,State Government
Telangana,Adilabad,Bela,Chaprala,Chaprala,,"SubCentre, Chaprala",SubCentre,19.6910492,78.8184432,Rural,Functional,State Government
Telangana,Adilabad,Boath,chinthalbori,Main Road,Near Primary School,"SubCentre, Chintalbori T",SubCentre,19.411726,78.261559,Rural,Functional,State Government
Telangana,Adilabad,AIDILABAD RURAL,Chisdhari Khanapur,Chisdhari Khanapur,Near School,"SubCentre, Chisdhari Khanapur",SubCentre,19.5403752,78.7079381,Rural,Functional,State Government
Telangana,Adilabad,Utnoor,near main road,,,"SubCentre, Dantanpally",SubCentre,19.325732,78.818686,Rural,Functional,State Government
Telangana,Adilabad,MAVALA,Dasnapur,Dasnapur,Anukunta,"SubCentre, Dasnapur",SubCentre,19.656459,78.5277506,Rural,Functional,Private - for profit
Telangana,Adilabad,Bela,Dehegaon,Dehegaon,Hanman Temple,"SubCentre, Dehgaon",SubCentre,19.7299903,78.7844548,Rural,Functional,State Government
Telangana,Adilabad,Talamadugu,Veternary Hospital,Last Street,Barampur Road,"SubCentre, Devapur",SubCentre,19.611806,78.4602749,Rural,Functional,State Government
Telangana,Adilabad,GADIGUDA,Near Main road,,Near Bus stand,"SubCentre, Dhaba K",SubCentre,19.577221,78.8750644,Rural,Functional,State Government
Telangana,Adilabad,BHEEMPUR,Danora,UPS School,Near UPS School,"SubCentre, Dhanora",SubCentre,19.3060095,78.948623,Rural,Functional,State Government
Telangana,Adilabad,Boath,Dhanora D,Reddy colony,Near GP Office,"SubCentre, Dhanora",SubCentre,19.4301501,79.1576752,Rural,Functional,Private - for profit
Telangana,Adilabad,GADIGUDA,Gadiguda Village,,"Near Bus stand , DR Depo","SubCentre, Gadiguda",SubCentre,19.6007413,78.9231667,Rural,Functional,State Government
Telangana,Adilabad,Ichoda,New colony Gerjam,Street NO.1,Near UPS School,"SubCentre, Gerjam",SubCentre,19.4111156,78.4723528,Rural,Functional,Private - for profit
Telangana,Adilabad,Boath,ghanpur,SC Colony,Near GP Office,"SubCentre, Ghanpur",SubCentre,19.3494452,78.8439268,Rural,Functional,State Government
Telangana,Adilabad,Jainath,BC Colony,BC Colony,Near Bus Stand,"SubCentre, Gimma",SubCentre,19.777591,78.5419503,Rural,Functional,Private - for profit
Telangana,Adilabad,BHEEMPUR,Girgaon,Main Road,Dathathri Temple,"SubCentre, Girgaon",SubCentre,19.7288421,78.3557775,Rural,Functional,State Government
Telangana,Adilabad,Bazarhathnoor,Girnoor,Kandly Road,Near water Tank,"SubCentre, Girnoor",SubCentre,19.4532458,78.3984423,Rural,Functional,State Government
Telangana,Adilabad,Bazarhathnoor,Gokonda,Main Road,Near Primary School,"SubCentre, Gokonda",SubCentre,19.51527,78.363955,Rural,Functional,State Government
Telangana,Adilabad,Gudihathnoor,Gudihathnoor,,,"SubCentre, Gudihathnoor",SubCentre,19.5292668,78.5121323,Rural,Functional,State Government
Telangana,Adilabad,Utnoor,near busstand,,,"SubCentre, Hasnapur",SubCentre,19.417392,78.810446,Rural,Functional,State Government
Telangana,Adilabad,Ichoda,Block Telangana,Reddy Colony,Near Library,"SubCentre, Ichoda East",SubCentre,19.427579,78.452402,Rural,Functional,Private - for profit
Telangana,Adilabad,Ichoda,Eachoda West Echoda,Street No.5,Near SC Hostel,"SubCentre, Ichoda West",SubCentre,19.4276033,78.4553013,Rural,Functional,State Government
Telangana,Adilabad,Jainath,Jainath,Sri Satyanarayana Temple,SC Colony,"SubCentre, Jainad",SubCentre,19.7327349,78.6427107,Rural,Functional,State Government
Telangana,Adilabad,Jainath,Dathaguda,,Syeedpur Raod,"SubCentre, Jamini",SubCentre,19.6569688,78.6965972,Rural,Functional,State Government
Telangana,Adilabad,Bazarhathnoor,Jatharla,Bhutai Road,Near Residential High School,"SubCentre, Jatarla",SubCentre,19.4894691,78.3244788,,Functional,State Government
Telangana,Adilabad,Talamadugu,Shekguda Beside Road,Last Street,Shivalayam,"SubCentre, Jhari",SubCentre,19.6068733,78.3728456,Rural,Functional,State Government
Telangana,Adilabad,Jainath,Pramary School,Near River,Near GP,"SubCentre, Kamai",SubCentre,19.8167353,78.5605843,Rural,Functional,State Government
Telangana,Adilabad,Jainath,KMJCR,,Near Sathnala Project,"SubCentre, Kampa Mediguda",SubCentre,19.6658207,78.651221,Rural,Functional,State Government
Telangana,Adilabad,Tamsi,BC Colony,BC Colony,SC Hostel,"SubCentre, Kapparla",SubCentre,19.7253473,78.4595644,Rural,Functional,State Government
Telangana,Adilabad,BHEEMPUR,Karanji T,Busstand Road,Sri Rama Temple,"SubCentre, Karanji",SubCentre,19.8556834,78.3123835,Rural,Functional,State Government
Telangana,Adilabad,Boath,karathwada,Main Road,Near School,"SubCentre, Karatwada",SubCentre,19.3618733,78.2988637,Rural,Functional,State Government
Telangana,Adilabad,Ichoda,Keshavapatnam,ST Ward,Near School,"SubCentre, Keshavpatnam",SubCentre,19.427579,78.452402,Rural,Functional,Private - for profit
Telangana,Adilabad,AIDILABAD RURAL,Khandala,Khandala,Near School,"SubCentre, Khandala",SubCentre,19.5734177,78.6739117,Rural,Functional,State Government
Telangana,Adilabad,Talamadugu,Anganwadi Centre,Last Street,Near Primary School,"SubCentre, Khuchulapur",SubCentre,19.3267919,78.3337271,Rural,Functional,State Government
Telangana,Adilabad,Bela,,,,"SubCentre, Kobbai",SubCentre,19.7273262,78.835433,Rural,Functional,State Government
Telangana,Adilabad,Talamadugu,Anganwadi 1 Centre,1st Street,Sunkidi Road,"SubCentre, Kodad",SubCentre,19.6733843,78.466314,Rural,Functional,State Government
Telangana,Adilabad,Ichoda,SC Colony,Street No.3,Near Bhudda Mandir,"SubCentre, Kokasmannur",SubCentre,19.393875,78.436439,Rural,Functional,State Government
Telangana,Adilabad,Gudihathnoor,Kolhari,,,"SubCentre, Kolhari",SubCentre,19.5054061,78.5263305,Rural,Functional,State Government
Telangana,Adilabad,Boath,kowtha,main road,Near ZPSS School,"SubCentre, Kowta",SubCentre,18.8952158,78.0052678,Rural,Functional,Private - not for profit
Telangana,Adilabad,Jainath,Kura,Near Bus Stand,ZPSS Opp,"SubCentre, Kura",SubCentre,19.7697436,78.6710756,Rural,Functional,State Government
Telangana,Adilabad,Utnoor,NEAR GP,lakkaram,,"SubCentre, Lakkaram",SubCentre,19.381407,78.797143,Rural,Functional,State Government
Telangana,Adilabad,Jainath,Laxmipur,Near GP,Near GP,"SubCentre, Laxmipur",SubCentre,19.693987,78.6675305,Rural,Functional,State Government
Telangana,Adilabad,GADIGUDA,Lokari-K,,Near Bus stand,"SubCentre, Lokari",SubCentre,19.5723516,78.8439268,Rural,Functional,Private - for profit
Telangana,Adilabad,GADIGUDA,Malepur,,Near Primary School,"SubCentre, Malepur",SubCentre,19.4847703,78.9457948,Rural,Functional,Private - for profit
Telangana,Adilabad,AIDILABAD RURAL,Mamidiguda,Mamidiguda,Ashram High School,"SubCentre, Mamidiguda",SubCentre,19.4591944,78.65277529,Rural,Functional,State Government
Telangana,Adilabad,Gudihathnoor,Mannur,,Near Shivalayam Temple,"SubCentre, Mannur",SubCentre,19.4844497,78.4965043,Rural,Functional,State Government
Telangana,Adilabad,Boath,Marlapally,Nigini Road,Near BSNL Tower,"SubCentre, Marlapally",SubCentre,19.322614,78.242118,Rural,Functional,State Government
Telangana,Adilabad,MAVALA,Mavala,Mavala,G.P. Side,"SubCentre, Mavala",SubCentre,19.6354376,78.5085778,Rural,Functional,State Government
Telangana,Adilabad,GADIGUDA,Mediguda Village,,Yellapur road,"SubCentre, Mediguda",SubCentre,19.3381742,79.3887901,Rural,Functional,Private - for profit
Telangana,Adilabad,Ichoda,Mamidiguda,Street.No.1,School Road,"SubCentre, Mediguda",SubCentre,19.4591944,78.6526393,Rural,Functional,State Government
Telangana,Adilabad,Gudihathnoor,Near Anganwadi center,SC Colony,,"SubCentre, Mutnoor",SubCentre,19.5136024,78.62979412,Rural,Functional,State Government
Telangana,Adilabad,Ichoda,Narsapur-T,Maruthi Ward,Near Kirana,"SubCentre, Narsapur",SubCentre,17.7394297,78.2846303,Rural,Functional,Private - for profit
Telangana,Adilabad,Tamsi,TTD Temple,TTD Temple,Mazid,"SubCentre, Nipani",SubCentre,19.7489594,78.4563671,Rural,Functional,State Government
Telangana,Adilabad,Jainath,Nirala,Near Bus Stand,Near Bus Stand,"SubCentre, Nirala",SubCentre,19.733153,78.5976648,Rural,Functional,State Government
Telangana,Adilabad,GADIGUDA,Paraswada-B,,Anganiwadi Center,"SubCentre, Paraswada B",SubCentre,19.5772666,78.9231667,Rural,Functional,State Government
Telangana,Adilabad,Boath,Patnapur,Gond colony,Near Ashram High School,"SubCentre, Patnapur",SubCentre,19.4599097,78.9231667,Rural,Functional,Private - not for profit
Telangana,Adilabad,Jainath,New Bus Stand,Behind DGB Bank,Behind GP,"SubCentre, Pendalwada",SubCentre,19.8048263,78.5948266,Rural,Functional,State Government
Telangana,Adilabad,Utnoor,"takkuguda road,","takkuguda road,","takkuguda road,","SubCentre, Perkaguda",SubCentre,19.402128,78.7548,,Functional,State Government
Telangana,Adilabad,AIDILABAD RURAL,Pippaldhari,Pippaldhari,Near UPS School,"SubCentre, Pippaldari",SubCentre,19.5954398,78.651221,Rural,Functional,State Government
Telangana,Adilabad,Tamsi,SC Colony,SC Colony,Primary School,"SubCentre, Pippalkoti",SubCentre,19.8239631,78.5788601,Rural,Functional,State Government
Telangana,Adilabad,Bazarhathnoor,Komrambheem colony,Bazarhatnur Road,Grampanchayath Office,"SubCentre, Pipri",SubCentre,19.4318432,79.1858904,Rural,Functional,State Government
Telangana,Adilabad,Boath,pochara,main Road,Near Hanuman Temple,"SubCentre, Pochara",SubCentre,19.3343898,78.360756,Rural,Functional,Private - for profit
Telangana,Adilabad,Utnoor,near  bus stop,,,"SubCentre, Pulimadugu",SubCentre,19.454067,78.706012,Rural,Functional,State Government
Telangana,Adilabad,AIDILABAD RURAL,Ramai,Ramai,Anganwadi Center,"SubCentre, Ramai",SubCentre,19.6557589,78.6313624,Rural,Functional,State Government
Telangana,Adilabad,MAVALA,Ramnagar,Ramnagar,K.Prabhakar Kirana,"SubCentre, Ramnagar",SubCentre,19.6537455,78.5200275,Rural,Functional,Private - for profit
Telangana,Adilabad,Utnoor,"devari house, ramur K","devari house, ramur K","devari house, ramur K","SubCentre, Rampur K",SubCentre,19.396385,78.800704,Rural,Functional,State Government
Telangana,Adilabad,Utnoor,near school,near school,near school,"SubCentre, Salewada B",SubCentre,19.432327,78.717363,Rural,Functional,State Government
Telangana,Adilabad,Bela,Sangidi,Sangidi,Mazid,"SubCentre, Sangidi",SubCentre,19.7647289,78.7306158,Rural,Functional,State Government
Telangana,Adilabad,Bela,Sayeedpur,Sayeedpur,Near Primary School,"SubCentre, Sayeedpur",SubCentre,19.6325419,78.7277814,Rural,Functional,State Government
Telangana,Adilabad,Gudihathnoor,at malkapur road,,,"SubCentre, Seetagondi",SubCentre,19.3591424,79.002342,Rural,Functional,State Government
Telangana,Adilabad,Utnoor,shantinagar,,,"SubCentre, Sevadasnagar",SubCentre,19.370075,78.774539,Rural,Functional,State Government
Telangana,Adilabad,Gudihathnoor,Shanthapur,,Near Anganwadi Center,"SubCentre, Shantapur",SubCentre,19.475267,78.5362706,Rural,Functional,State Government
Telangana,Adilabad,Utnoor,Shampur,near phc,near phc,"SubCentre, Shyampur",SubCentre,19.424768,78.743005,Rural,Functional,State Government
Telangana,Adilabad,Ichoda,Sirichalma,Kolamguda Street,Near water tank,"SubCentre, Sirchalma",SubCentre,19.311056,78.5575676,Rural,Functional,State Government
Telangana,Adilabad,Ichoda,Sirikonda,Bazar Road,Near Veternary Hospital,"SubCentre, Sirkonda",SubCentre,19.4372379,78.5604069,Rural,Functional,State Government
Telangana,Adilabad,Bela,Sirsanna,Sirsanna,Near G.P,"SubCentre, Sirsanna",SubCentre,19.7194655,78.7107731,Rural,Functional,State Government
Telangana,Adilabad,Boath,sonala,Main Road,Old Dwaraka building,"SubCentre, Sonala",SubCentre,19.4179344,78.3166526,Rural,Functional,State Government
Telangana,Adilabad,Ichoda,Kokasmannur,Kokasmannur,Near Hanuman Temple,"SubCentre, Talamadri",SubCentre,19.414016,78.5178096,Rural,Functional,Private - for profit
Telangana,Adilabad,Talamadugu,Bus Stand Road,1st Street,Beside Ambedkar Statue,"SubCentre, Talamadugu",SubCentre,19.642647,78.3934657,Rural,Functional,State Government
Telangana,Adilabad,Tamsi,SC Colony,SC Colony,Anganwadi Center,"SubCentre, Tamsi",SubCentre,19.6877718,78.4226112,Rural,Functional,State Government
Telangana,Adilabad,Bazarhathnoor,Tembi,Ananthpur Road,Water Tank,"SubCentre, Tembi",SubCentre,19.500354,78.404167,Rural,Functional,State Government
Telangana,Adilabad,Gudihathnoor,Tosham,,Beside Sai Temple,"SubCentre, Tosham",SubCentre,19.5244894,78.5614079,Rural,Functional,State Government
Telangana,Adilabad,Talamadugu,Near Public Primary School,Last Street,Opp Primary School,"SubCentre, Umri T",SubCentre,19.6242303,78.3244788,Rural,Functional,State Government
Telangana,Adilabad,Utnoor,,utnoor,NEAR ADDL.DM&HO OFFICE,"SubCentre, Utnoor",SubCentre,19.371173,78.779225,Rural,Functional,State Government
Telangana,Adilabad,MAVALA,Whagapur,Whagapur,Near G.P,"SubCentre, Waghapur",SubCentre,19.5680265,78.4631169,Rural,Functional,State Government
Telangana,Adilabad,AIDILABAD RURAL,Yapalguda,Yapalguda,Near Anganwadi Center,"SubCentre, Yapalguda",SubCentre,19.6511982,78.6058242,Rural,Functional,Private - for profit
Telangana,Adilabad,Utnoor,near temple,,,"SubCentre, Yenda",SubCentre,19.447269,78.731074,Rural,Functional,State Government
Telangana,Adilabad,Adilabad URBAN,Hamaliwada,Hamaliwada,Cotton Market Yard,"Urban  Primary Health Centre, Hamallwada",Urban Health Centre (UPHC),18.8773545,79.4514022,Urban,Functional,State Government
Telangana,Adilabad,Adilabad URBAN,Chilkurilaxminagar,Chilkuribalajinagar,Near UPS Hindi Govt School,"Urban Primary Health Centre, Chilukuri Laxmi Nagar",Urban Health Centre (UPHC),19.69078887,78.54174256,Urban,Functional,Private - for profit
Telangana,Adilabad,Adilabad URBAN,Kurshidnagar,Kurshidnagar,Mamatha Ginning,"Urban Primary Health Centre, Kurshidnagar",Urban Health Centre (UPHC),19.679182,78.5163894,Urban,Functional,State Government
Telangana,Adilabad,Adilabad URBAN,Puthlibowli,Puthlibowli,Opp.Shadhikhana,"Urban Primary Health Centre, Putilibowli",Urban Health Centre (UPHC),19.6692312,78.5397317,Urban,Functional,State Government
Telangana,Adilabad,Adilabad URBAN,Water Tank,Shanthinagar,Near Degree College,"Urban Primary Health Centre, Shantinagar",Urban Health Centre (UPHC),19.6665444,78.5405994,Urban,Functional,State Government
Telangana,Adilabad,Neradigonda,Neradigonda,wadoor Road,Z.P HIGH SCHOOL,"Primary Health Centre, Neradigonda",Primary Health Centre,19.2999254,78.4055514,Rural,Functional,State Government
Telangana,Adilabad,Neradigonda,Buggaram B,Main Road,Near Anganwadi Center,"SubCentre, Buggaram",SubCentre,19.2862689,78.443932,Rural,Functional,State Government
Telangana,Adilabad,Neradigonda,Guthpala,Main Road,Near Minigurukula Patashala,"SubCentre, Gutpala",SubCentre,19.34435062,78.37685108,Rural,Functional,State Government
Telangana,Adilabad,Neradigonda,Neradigonda,IB Road,Near Anganwadi Center,"SubCentre, Neradigonda",SubCentre,19.2999254,78.4055514,Rural,Functional,Private - for profit
Telangana,Adilabad,Neradigonda,Tarnam k,Main Road,Near vetarnary Hospital,"SubCentre, Tarnam",SubCentre,19.3374355,78.4425108,Rural,Functional,State Government
Telangana,Adilabad,Neradigonda,Tejapur,High School Road,NEAR ZPHS SCHOOL,"SubCentre, Tejapur",SubCentre,19.3244119,78.3877778,Rural,Functional,State Government
Telangana,Adilabad,Neradigonda,wadoor,Main Road,Near Hanuman Temple,"SubCentre, Waddur",SubCentre,19.8279605,78.4034188,Rural,Functional,Private - for profit
Telangana,Adilabad,Neradigonda,wankidi,Rajura Road,Near vetarnary Hospital,"SubCentre, Wankidi",SubCentre,19.2061413,78.3813785,Rural,Functional,Private - not for profit
Telangana,Adilabad,Narnoor,"Market area , Narnoor.",,Near Police Station,"Primary Health Centre, Narnoor",Primary Health Centre,19.5009214,78.8510044,Rural,Functional,State Government
Telangana,Adilabad,Narnoor,Gunjala,,"Main Road , Near Anganiwadi Center","SubCentre, Gunjala",SubCentre,19.7946751,78.4211897,Rural,Functional,Private - for profit
Telangana,Adilabad,Narnoor,"Anganiwadi Center , Beside : Kothapally-H",,Near Primary School,"SubCentre, Kotapally",SubCentre,18.2591149,78.5858944,Rural,Functional,State Government
Telangana,Adilabad,Narnoor,Nagalkonda,,Near Primary School Urdu Medium,"SubCentre, Nagalkonda",SubCentre,19.47164992,78.90050411,Rural,Functional,State Government
Telangana,Adilabad,Narnoor,"Main road ,  Narnoor",,Near Ayurvedi Hospita,"SubCentre, Narnoor",SubCentre,19.50094094,78.85106564,Rural,Functional,State Government
Telangana,Adilabad,Narnoor,Thadihatnoor,,"Main Road, Anganiwadi Center (SC Wada)","SubCentre, Tadihatnoor",SubCentre,19.4526322,78.82900715,Rural,Functional,Private - for profit
Telangana,Adilabad,Inderavelly,Adilabad(U),"Ravindra Nagar Colony, Adilabad(U)",Adilabad(U),KRK Colony (Basti Dawakhana),Urban health and wellness center (UHWC),19.64553,78.53576,Urban,Functional,State Government
Telangana,Adilabad,Inderavelly,NEAR GP,,,"Primary Health Centre, Indervelly",Primary Health Centre,19.4940711,78.6710756,Rural,Functional,State Government
Telangana,Adilabad,Inderavelly,"Patelroad, Pittabongaram","Patelroad, Pittabongaram","Patelroad, Pittabongaram","Primary Health Centre, Pittabongaram",Primary Health Centre,19.27,78.58,Rural,Functional,State Government
Telangana,Adilabad,Inderavelly,INDERVELLY,,,"SubCentr, Indervelly",SubCentre,19.491372,78.686528,Rural,Functional,Private - for profit
Telangana,Adilabad,Inderavelly,DASNAPUR,,,"SubCentre, Dasnapur",SubCentre,19.453162,78.628693,Rural,Functional,Private - for profit
Telangana,Adilabad,Inderavelly,Danora B main reoad,Danora B main reoad,Danora B main reoad,"SubCentre, Dhanora B",SubCentre,19.514665,78.616982,Rural,Functional,State Government
Telangana,Adilabad,Inderavelly,ESHWERNAGAR,,,"SubCentre, Eshwarnagar",SubCentre,19.4795396,78.6806488,Rural,Functional,State Government
Telangana,Adilabad,Inderavelly,NEAR GP,,,"SubCentre, Heerapur",SubCentre,19.497749,78.660794,Rural,Functional,State Government
Telangana,Adilabad,Inderavelly,near temple,,,"SubCentre, Keslapur",SubCentre,19.505597,78.646589,Rural,Functional,State Government
Telangana,Adilabad,Inderavelly,kondapur,,,"SubCentre, Kondapur",SubCentre,19.435761,78.585778,Rural,Functional,State Government
Telangana,Adilabad,Inderavelly,mutnoor,,,"SubCentre, Mutnoor",SubCentre,19.513364,78.629937,Rural,Functional,State Government
Telangana,Adilabad,Inderavelly,satwajiguda,,,"SubCentre, Satwajiguda",SubCentre,19.2237035,79.7483995,Rural,Functional,State Government
Telangana,Adilabad,Inderavelly,walgonda,,,"SubCentre, Walgonda",SubCentre,19.431188,78.627277,Rural,Functional,State Government
Telangana,Bhadradri Kothagudem,Kothagudem,old kothagudem,"27 ward, dho number pasthi",burdidagadda railway track,A power House basthi(basthi dawakhana),Urban health and wellness center (UHWC),17.625466,80.680268,Urban,Functional,State Government
Telangana,Bhadradri Kothagudem,Bhadrachalam,Bhadrachalam,Kothapeta,Kunavaram Road,"Area Hospital, Bhadrachalam",Sub-District Hospital,17.66635247,80.89152396,Urban,Functional,State Government
Telangana,Bhadradri Kothagudem,Kothagudem,Kothagudem,Gajula Rajam Basthi,Near Bajan Mandir,"Area Hospital, Koathagudem",Sub-District Hospital,17.55068597,80.62194318,Urban,Functional,State Government
Telangana,Bhadradri Kothagudem,Manuguru,"vagu mallaram , manuguru",Manuguru,vagu mallaram near court,CHC Manuguru,Community Health Center,17.92939,80.8236,Urban,Functional,State Government
Telangana,Bhadradri Kothagudem,Burgampahad,Main centre,Bustand Street,Near Govt School beside,"Community Health Center, Burgampadu",Community Health Center,17.64422651,80.86851597,Rural,Functional,State Government
Telangana,Bhadradri Kothagudem,Aswaraopeta,Aswaraopeta,Ring Road,Ring Road,"Community Health Centre, Aswaraopeta",Community Health Center,17.2424844,81.12885118,Rural,Functional,State Government
Telangana,Bhadradri Kothagudem,Palvoncha,Paloncha,Mucipal Office Road,Opp. Police Quarter,"Community Health Centre, Paloncha",Community Health Center,17.60724115,80.71970701,Urban,Functional,State Government
Telangana,Bhadradri Kothagudem,Dummugudem,Arlagudem,Grampanchayath Road,Besie Subcenter Arlagudem,"Government Ayurvedic Dispensary, Arlagudem (Regular)",Ayurveda dispensary,17.8161992,80.9657257,Rural,Functional,State Government
Telangana,Bhadradri Kothagudem,Aswapuram,Ashwapuram,Grampanchayath Road,Beside Mission Bhagiratha Water Tank,"Government Ayurvedic Dispensary, Ashwapuram (Regular)",Ayurveda dispensary,17.8365915,80.8280361,Rural,Functional,State Government
Telangana,Bhadradri Kothagudem,Bhadrachalam,Bhadrachalam,Medical Colony Bhadrachalam,Area Hospital Bhadrachalam,"Government Ayurvedic Dispensary, Bhadrachalam (Regular)",Ayurveda dispensary,17.6661678,80.8926373,Rural,Functional,State Government
Telangana,Bhadradri Kothagudem,Chunchupalli,Chunchupally,Babu Camp,Opp:Central Bank ATM,"Government Ayurvedic Dispensary, Chunchupally (Regular)",Ayurveda dispensary,17.5396045,80.6182266,Rural,Functional,State Government
Telangana,Bhadradri Kothagudem,Palvoncha,Jagannadhapuram,Main Road,PHC Jagannadhapuram,"Government Ayurvedic Dispensary, Jagannadhapuram (NRHM)",Ayurveda dispensary,17.6059979,80.7470168,Rural,Functional,State Government
Telangana,Bhadradri Kothagudem,Julurpadu,Julurupadu,Papakol Road,PHC Julurupadu,"Government Ayurvedic Dispensary, Julurupadu (NRHM)",Ayurveda dispensary,17.4090583,80.5030881,Rural,Functional,State Government
Telangana,Bhadradri Kothagudem,Karakagudem,Karakagudem,Seetharampuram,Near MRO Office,"Government Ayurvedic Dispensary, Karakagudem (Regular)",Ayurveda dispensary,18.0389311,80.5668598,Rural,Functional,State Government
Telangana,Bhadradri Kothagudem,Manuguru,Manuguru,"Shivalingapuram, Manuguru",Near MPUPS Shivalingapuram,"Government Ayurvedic Dispensary, Manuguru (NRHM)",Ayurveda dispensary,17.9504949,80.8184867,Rural,Functional,State Government
Telangana,Bhadradri Kothagudem,Burgampahad,Morampalli Banjara,Main Road,Opp:Shivalayam,"Government Ayurvedic Dispensary, Morampalli Banjara (NRHM)",Ayurveda dispensary,17.6361789,80.8079963,Rural,Functional,State Government
Telangana,Bhadradri Kothagudem,Dammapeta,Nagupally,Main Road Nagupally,Beside Sub Center Nagupally,"Government Ayurvedic Dispensary, Nagupally (Regular)",Ayurveda dispensary,17.281039,80.8787835,Rural,Functional,State Government
Telangana,Bhadradri Kothagudem,Palvoncha,Palvancha,Municipal Office Road,Opp: Municipal Office,"Government Ayurvedic Dispensary, Palvancha (NRHM)",Ayurveda dispensary,17.6007663,80.7041138,Rural,Functional,State Government
Telangana,Bhadradri Kothagudem,Chunchupalli,Penugadapa,Main Road Penugadapa,Near Govt. School,"Government Ayurvedic Dispensary, Penugadapa (NRHM)",Ayurveda dispensary,17.4652071,80.6700915,Rural,Functional,State Government
Telangana,Bhadradri Kothagudem,Cherla,R.Kothagudem,Main Road,Opp:Temple,"Government Ayurvedic Dispensary, R.Kothagudem (Regular)",Ayurveda dispensary,18.0056141,80.8734624,Rural,Functional,State Government
Telangana,Bhadradri Kothagudem,Yellandu,Rompaid,R&B Main Road Old Check Post,PHC Rompaid,"Government Ayurvedic Dispensary, Rompaid (Regular)",Ayurveda dispensary,17.6381637,80.2984874,Rural,Functional,State Government
Telangana,Bhadradri Kothagudem,Sujathanagar,Sujathanagar,Singabupalem Road,Near Bhavani Jewellery,"Government Ayurvedic Dispensary, Sujathanagar (NRHM)",Ayurveda dispensary,17.484174,80.5681061,Rural,Functional,State Government
Telangana,Bhadradri Kothagudem,Tekulapalli,Sulahanagar,Mutyalampadu X Road,Behin Grampanchayath Office,"Government Ayurvedic Dispensary, Sulahanagar (NRHM)",Ayurveda dispensary,17.5604367,80.5005645,Rural,Functional,State Government
Telangana,Bhadradri Kothagudem,Aswaraopeta,Ashwaraopet,Rajamandri Road,Beside ZPHS School,"Government Homoeo Dispensary, Ashwaraopet (Regular)",Homoeopathy dispensary,17.2422593,81.1311037,Rural,Functional,State Government
Telangana,Bhadradri Kothagudem,Bhadrachalam,Bhadrachalam,Medical Colony,"In the Premises of Area Hospital, Bhadrachalam","Government Homoeo Dispensary, Bhadrachalam (Regular)",Homoeopathy dispensary,17.6657146,80.8926822,Rural,Functional,State Government
Telangana,Bhadradri Kothagudem,Chandrugonda,Chandrugonda,Main Road Chandrugonda,Near Indian Oil Petrol Pump,"Government Homoeo Dispensary, Chandrugonda (NRHM)",Homoeopathy dispensary,17.3825571,80.6567974,Rural,Functional,State Government
Telangana,Bhadradri Kothagudem,Cherla,Cherla,Main Road,PHC Cherla,"Government Homoeo Dispensary, Cherla (NRHM)",Homoeopathy dispensary,18.0917508,80.797351,Rural,Functional,State Government
Telangana,Bhadradri Kothagudem,Dummugudem,Parnashala,Temple Road Chinnabandirevu,Shivalayam Road,"Government Homoeo Dispensary, Parnashala (NRHM)",Homoeopathy dispensary,17.9161715,80.9181585,Rural,Functional,State Government
Telangana,Bhadradri Kothagudem,Pinapaka,Pinapaka Main Road,Ramalayam Street,ZPHS High School,"Government Homoeo Dispensary, Pinapaka (NRHM)",Homoeopathy dispensary,18.0252654,80.6928393,Rural,Functional,State Government
Telangana,Bhadradri Kothagudem,Yellandu,Yellandu,Area Hospital,Opp: Kalanjali Theater,"Government Homoeo Dispensary, Yellandu (Regular)",Homoeopathy dispensary,17.5857124,80.329385,Rural,Functional,State Government
Telangana,Bhadradri Kothagudem,Dummugudem,Narasapuram,Cherla Road,Near Panchayath Office,"Government Naturopathy Dispensary, Narasapuram (NRHM)",Yoga And Naturopathy dispensary,17.7759713,80.881949,Rural,Functional,State Government
Telangana,Bhadradri Kothagudem,Aswaraopeta,Ashwaraopet,"Chilakalagandi Mutyalamma Temple, Vinayakapuram",Near Shivalayam Temple,"Government Unani Dispensary, Ashwaraopet (NRHM)",Unani  dispensary,17.3475662,81.1191252,Rural,Functional,State Government
Telangana,Bhadradri Kothagudem,Bhadrachalam,Bhadrachalam,Doctors Colony,"Area Hospital, Bhadrachalam","Government Unani Dispensary, Bhadrachalam (Regular)",Unani  dispensary,17.6662525,80.8923707,Rural,Functional,State Government
Telangana,Bhadradri Kothagudem,Aswaraopeta,Gumadavelly,Near Peddavagu Project,Near Peddavagu Project,"Government Unani Dispensary, Gumadavelly (NRHM)",Unani  dispensary,17.4153166,81.1778988,Rural,Functional,State Government
Telangana,Bhadradri Kothagudem,Pinapaka,Janampeta,Bhupathiraopeta Road,Near Saibaba Temple,"Government Unani Dispensary, Janampeta (NRHM)",Unani  dispensary,18.0989909,80.6885663,Rural,Functional,State Government
Telangana,Bhadradri Kothagudem,Julurpadu,Julurupahad,Papakol Road,PHC Juluruphad,"Government Unani Dispensary, Papakol (Regular)",Unani  dispensary,17.4090583,80.5030881,Rural,Functional,State Government
Telangana,Bhadradri Kothagudem,Laxmidevipalli,Regalla,Gollagudem Road,Near Primary School,"Government Unani Dispensary, Regalla (NRHM)",Unani  dispensary,17.6187826,80.6332005,Rural,Functional,State Government
Telangana,Bhadradri Kothagudem,Cherla,,FOREST OFFICE OPP,FOREST OFFICE STREET,"Primariy Health Centre, Charla",Primary Health Centre,18.08593048,80.83491325,Rural,Functional,State Government
Telangana,Bhadradri Kothagudem,Gundala,Allapalli,Main Road,Near High School,"Primary Health Centre, Allapalli",Primary Health Centre,17.8299145,80.4799273,Rural,Functional,State Government
Telangana,Bhadradri Kothagudem,Aswaraopeta,Mutyalamma Temple,Main Road,Chilakalagandi,"Primary Health Centre, Aswaraopeta",Primary Health Centre,17.2444836,81.1313111,Rural,Functional,State Government
Telangana,Bhadradri Kothagudem,Chandrugonda,Main Road,Kothagudem Road,Near Petrol Bunk,"Primary Health Centre, Chandrugonda",Primary Health Centre,17.39241546,80.57330132,Rural,Functional,State Government
Telangana,Bhadradri Kothagudem,Dammapeta,Dammapeta,"Mandalapalli, Dammapeta Road",Dammapeta Road,"Primary Health Centre, Dammapeta",Primary Health Centre,17.2674254,81.0105872,Rural,Functional,State Government
Telangana,Bhadradri Kothagudem,Chandrugonda,,main road,Beside high School,"Primary Health Centre, Erragunta",Primary Health Centre,17.1556203,80.771321,Rural,Functional,State Government
Telangana,Bhadradri Kothagudem,Aswaraopeta,pedavagu project,Main Road,Pedavagu project,"Primary Health Centre, Gummadavalli",Primary Health Centre,17.4185199,81.1471836,Rural,Functional,State Government
Telangana,Bhadradri Kothagudem,Gundala,GUNDALA,POLICE LINE,Near Police Station,"Primary Health Centre, Gundala",Primary Health Centre,17.9116758,80.3254886,Rural,Functional,State Government
Telangana,Bhadradri Kothagudem,Pinapaka,,,ZPSS SHCOOL,"Primary Health Centre, Janampeta",Primary Health Centre,18.095689,80.6881213,Rural,Functional,State Government
Telangana,Bhadradri Kothagudem,Julurpadu,Near Khammam Main Road,Papakollu Road,Near Veternary dispensary,"Primary Health Centre, Julurupadu",Primary Health Centre,17.4071061,80.50286,Rural,Functional,State Government
Telangana,Bhadradri Kothagudem,Pinapaka,,MAIN ROOD,,"Primary Health Centre, Karakagudem",Primary Health Centre,18.0383447,80.6049374,Rural,Functional,State Government
Telangana,Bhadradri Kothagudem,Mulkalapally,Mangapeta,Main Road,MRO Office,"Primary Health Centre, Mangapeta",Primary Health Centre,18.2483287,80.5188396,Rural,Functional,State Government
Telangana,Bhadradri Kothagudem,Manuguru,SHIVALINGAPURAM,OLD CINIMA HALL,MAIN ROAD SHIVALINGAPURAM,"Primary HEalth Centre, Manuguru",Primary Health Centre,17.9312067,80.8266197,Rural,Functional,State Government
Telangana,Bhadradri Kothagudem,Burgampahad,SC Colony,Bhadrachalam Main road,Near Sandy,"Primary Health Centre, Morampallibanjara",Primary Health Centre,17.6332723,80.8114792,Rural,Functional,State Government
Telangana,Bhadradri Kothagudem,Dummugudem,NARSAPURAM,NARSAPURAM,Main Road,"Primary Health Centre, Narsapuram",Primary Health Centre,17.3291312,80.7269854,Rural,Functional,State Government
Telangana,Bhadradri Kothagudem,Dammapeta,Patwarigudem,"Near SC Colony, Patwari Gudem",Patwarigudem,"Primary Health Centre, Patwarigudem",Primary Health Centre,17.3487003,80.9622388,Rural,Functional,State Government
Telangana,Bhadradri Kothagudem,Kothagudem,Penagadapa,Main Road,Near Govt School,"Primary Health Centre, Penagadapa",Primary Health Centre,17.45432628,80.64930439,Rural,Functional,State Government
Telangana,Bhadradri Kothagudem,Pinapaka,,NEAR ZPSS SCHOOL,KARAKAGUDEM ROAD,"Primary Health Centre, Pinapaka",Primary Health Centre,18.02334354,80.68861485,Rural,Functional,State Government
Telangana,Bhadradri Kothagudem,Kothagudem,Regalla,Bangaruchelaka Road,Regalla High School,"Primary Health Centre, Regalla",Primary Health Centre,17.6227441,80.6347728,Rural,Functional,State Government
Telangana,Bhadradri Kothagudem,Cherla,,MARKET  OFFICE ROAD,,"Primary Health Centre, Satyanarayanapuram",Primary Health Centre,18.0171698,80.8668369,Rural,Functional,State Government
Telangana,Bhadradri Kothagudem,Kothagudem,,Main Road,,"Primary Health Centre, Sujatha Nagar",Primary Health Centre,17.4847791,80.5727702,Rural,Functional,State Government
Telangana,Bhadradri Kothagudem,Tekulapalli,MUTYALAMPADU,MAIN ROAD MUTYALAMPADU,MUTYALAMPADU STAGE,"Primary Health Centre, Sulahanagar",Primary Health Centre,17.59922,80.34267,Rural,Functional,State Government
Telangana,Bhadradri Kothagudem,Kothagudem,7-In Cline,Near Balaji Kirana,,"SubCentre, 7 incline",SubCentre,17.47991159,80.67110538,Rural,Functional,State Government
Telangana,Bhadradri Kothagudem,Chandrugonda,,beside saibaba temple,,"SubCentre, Abbugudem",SubCentre,17.3754485,80.7158977,Rural,Functional,State Government
Telangana,Bhadradri Kothagudem,Gundala,Allapalli,Main Road,Allapalli,"SubCentre, Allapalli",SubCentre,17.8299145,80.4799273,Rural,Functional,State Government
Telangana,Bhadradri Kothagudem,Kothagudem,sujathanagar,,MAIN ROAD,"SubCentre, Ambedkar Nagar",SubCentre,17.1876111,80.4003087,Rural,Functional,State Government
Telangana,Bhadradri Kothagudem,Kothagudem,Anandhakhani,,Opposite Check Post,"SubCentre, Anandkhani",SubCentre,17.50577979,80.64606428,Rural,Functional,State Government
Telangana,Bhadradri Kothagudem,Aswaraopeta,ANANTHARAM,ANANTHARAM,NEAR WATER TANK,"SubCentre, Anantharam",SubCentre,17.1676076,80.2502535,Rural,Functional,Private - for profit
Telangana,Bhadradri Kothagudem,Pinapaka,ANNATHARAM,MAIN ROAD,AW CENTER,"SubCentre, Anantharam",SubCentre,17.1676076,80.2502535,Rural,Functional,Private - for profit
Telangana,Bhadradri Kothagudem,Julurpadu,,main road,,"SubCentre, Anantharam",SubCentre,17.1676076,80.2502535,Rural,Functional,State Government
Telangana,Bhadradri Kothagudem,Burgampahad,AWC3 (aya house),Suryam bajar,Near Hanuman temple,"SubCentre, Anjanapuram",SubCentre,17.62864428,80.79268456,Rural,Functional,Private - for profit
Telangana,Bhadradri Kothagudem,Dammapeta,,"Beside GP Office, Ankamapelm",Ankampalem,"SubCentre, Ankampalem",SubCentre,17.38651809,80.96110582,Rural,Functional,State Government
Telangana,Bhadradri Kothagudem,Chandrugonda,,balajinagar,,"SubCentre, Annapureddipalli",SubCentre,17.367041,80.7852939,Rural,Functional,State Government
Telangana,Bhadradri Kothagudem,Julurpadu,,Ups School,,"SubCentre, Annarupadu",SubCentre,17.42929526,80.48738211,Rural,Functional,State Government
Telangana,Bhadradri Kothagudem,Dammapeta,,"Main Road, Arlapenta",Arlapenta,"SubCentre, Arlapenta",SubCentre,18.0212119,81.078377,Rural,Functional,Private - for profit
Telangana,Bhadradri Kothagudem,Manuguru,ASHOKNAGAR,ASHOK NAGAR,NEAR EXCISE OFFICE,"SubCentre, Ashoknagar",SubCentre,17.9280451,80.8128636,Rural,Functional,Private - for profit
Telangana,Bhadradri Kothagudem,Aswaraopeta,ASWARAOPETA,ASR NAGAR,NEAR PRIMARY SCHOOL,"SubCentre, Ashwaraopeta",SubCentre,17.2444836,81.1313111,Rural,Functional,Private - for profit
Telangana,Bhadradri Kothagudem,Aswaraopeta,"DONTHIKUNTA, ASWARAOPETA",DONTHIKUNTA,NEAR AMBEDKAR ARCH,"SubCentre, Aswaraopeta-I",SubCentre,17.2444836,81.1313111,Urban,Functional,Private - for profit
Telangana,Bhadradri Kothagudem,Aswaraopeta,NEAR GOWTHAMI SCHOOL,CHINTHAL BAZAR,NEAR GOWTHAMI SCHOOL,"SubCentre, Aswaraopeta-II",SubCentre,17.2444836,81.1313111,Urban,Functional,Private - for profit
Telangana,Bhadradri Kothagudem,Aswaraopeta,ASWARAOPETA,KONETI BAZAR,OPPOSITE ANGAWADI CENTER,"SubCentre, Aswaraopeta-III",SubCentre,17.2444836,81.1313111,Urban,Functional,Private - for profit
Telangana,Bhadradri Kothagudem,Chandrugonda,Temple,,,"SubCentre, Ayyannapalem",SubCentre,17.39000944,80.64170301,Rural,Functional,State Government
Telangana,Bhadradri Kothagudem,Kothagudem,,,,"SubCentre, Babu Camp",SubCentre,17.5358183,80.6174279,Rural,Functional,State Government
Telangana,Bhadradri Kothagudem,Manuguru,BANDARIGUDEM,EXCELLENT SCHOOL LINE,EXCELLENT SCHOOL LINE,"SubCentre, Bandarigudem",SubCentre,17.9312067,80.8266197,Rural,Functional,Private - for profit
Telangana,Bhadradri Kothagudem,Kothagudem,Bangaruchelaka,Bangaruchelaka,Bangaruchelaka,"SubCentre, Bangaruchelaka",SubCentre,17.78677595,80.62029362,Rural,Functional,State Government
Telangana,Bhadradri Kothagudem,Manuguru,BHAPANAKUNTA,AW CENTAR LINEAW CENTER,AW CENTER,"SubCentre, Bapanikunta",SubCentre,17.9591816,80.8197853,Rural,Functional,Private - for profit
Telangana,Bhadradri Kothagudem,Pinapaka,BATTUPALLI,MAIN ROAD,CHURCH,"SubCentre, Battupalli",SubCentre,17.99742759,80.5959177,Rural,Functional,Private - for profit
Telangana,Bhadradri Kothagudem,Julurpadu,Bethalapadu,main road,ups school road,"SubCentre, Betalapadu",SubCentre,17.45312368,80.46209425,Rural,Functional,State Government
Telangana,Bhadradri Kothagudem,Tekulapalli,BETHAMPUDI,MAIN ROAD,OPP-SG KIRANAM SHOP,"SubCentre, Bethampudi",SubCentre,17.5863703,80.5144214,Rural,Functional,Private - for profit
Telangana,Bhadradri Kothagudem,Manuguru,BS NAGAR,BUSTAND OPP. JET LINE,BS NAGAR,"SubCentre, Bhagathsinghnagar",SubCentre,17.14259479,79.63437796,Urban,Functional,Private - for profit
Telangana,Bhadradri Kothagudem,Tekulapalli,BODU,SCHOOL LINE,BEHIND G P,"SubCentre, Bodu",SubCentre,17.6771926,80.4423874,Rural,Functional,State Government
Telangana,Bhadradri Kothagudem,Tekulapalli,BADDUTHANDA,BADDUTHANDA,MAIN ROAD,"SubCentre, Boduthanda",SubCentre,17.6771926,80.4423874,Rural,Functional,State Government
Telangana,Bhadradri Kothagudem,Tekulapalli,BOMMANAPALLY,SCHOOL ROAD,BESIDE SCHOOL,"SubCentre, Bommanapalli",SubCentre,17.5722005,80.5730084,Rural,Functional,Private - for profit
Telangana,Bhadradri Kothagudem,Burgampahad,Gollabajar,Ramalayam,Near AWc,"SubCentre, Burgampadu-I",SubCentre,17.64056,80.873558,Rural,Functional,Private - for profit
Telangana,Bhadradri Kothagudem,Burgampahad,ZPHS school,SBH  Street,old boys Hostal,"SubCentre, Burgampadu-II",SubCentre,17.64056,80.873558,Rural,Functional,Private - for profit
Telangana,Bhadradri Kothagudem,Chandrugonda,,,Waterplant,"SubCentre, Chandrugonda",SubCentre,17.39241546,80.57330132,Rural,Functional,State Government
Telangana,Bhadradri Kothagudem,Mulkalapally,Ramachandrapuram,Ramachandrapuram,MPPS School,"SubCentre, Chaparalapalli",SubCentre,17.4238487,80.7650878,Rural,Functional,State Government
Telangana,Bhadradri Kothagudem,Kothagudem,Indiranagar,Indiranagar,Indiranagar,"SubCentre, Chatha konda -II",SubCentre,17.5577989,80.6396287,Rural,Functional,Private - for profit
Telangana,Bhadradri Kothagudem,Kothagudem,Chanthakonda,Chanthakonda,Chanthakonda,"SubCentre, Chathakonda-I",SubCentre,17.5577989,80.6396287,Rural,Functional,Private - for profit
Telangana,Bhadradri Kothagudem,Cherla,,CHERLA MAIN ROAD,CHERLA MAIN ROAD,"SubCentre, Cherla",SubCentre,18.0725046,80.8267064,Rural,Functional,State Government
Telangana,Bhadradri Kothagudem,Dammapeta,,"Main Road, Ch. Gollagudem",Ch. Gollagudem,"SubCentre, Chinnagollagudem",SubCentre,18.5112366,80.3902206,Rural,Functional,State Government
Telangana,Bhadradri Kothagudem,Kothagudem,,Near Govt School,,"SubCentre, Chunchupalli",SubCentre,17.52354158,80.60621738,Rural,Functional,State Government
Telangana,Bhadradri Kothagudem,Dammapeta,Market Yard,Market yard,Dammapeta,"SubCentre, Dammapeta-I",SubCentre,17.2674245,81.0099864,Rural,Functional,Private - for profit
Telangana,Bhadradri Kothagudem,Dammapeta,Banjara Colony,Banjara Colony,Dammapeta,"SubCentre, Dammapeta-II",SubCentre,17.2674245,81.0099864,Rural,Functional,State Government
Telangana,Bhadradri Kothagudem,Cherla,,CHERLA MAIN ROAD,,"SubCentre, Danavaipeta",SubCentre,18.00873313,80.87803245,Rural,Functional,State Government
Telangana,Bhadradri Kothagudem,Kothagudem,,Near St Joseps School,,"SubCentre, Dhanbad-I",SubCentre,17.49382848,80.64939022,Rural,Functional,State Government
Telangana,Bhadradri Kothagudem,Kothagudem,Dhanbad-II,Near Govt School,,"SubCentre, Dhanbad-II",SubCentre,17.49382848,80.64812422,Rural,Functional,State Government
Telangana,Bhadradri Kothagudem,Cherla,,,DOSILLPALI SCHOOL,"SubCentre, Dosallapalli",SubCentre,18.1065096,80.8626864,Rural,Functional,State Government
Telangana,Bhadradri Kothagudem,Pinapaka,DUGINEPALLI,ZPSS SCHOOL,DUGINEPALLI,"SubCentre, Dugenepalli",SubCentre,18.1348372,80.643097,Rural,Functional,Private - for profit
Telangana,Bhadradri Kothagudem,Chandrugonda,,main road,opp primary school,"SubCentre, Erragunta",SubCentre,17.1556203,80.771321,Rural,Functional,State Government
Telangana,Bhadradri Kothagudem,Burgampahad,Palakendram,Gandhinagar-1,Govt School,"SubCentre, Gandhinagar",SubCentre,17.2435586,80.1302969,Rural,Functional,Private - for profit
Telangana,Bhadradri Kothagudem,Dammapeta,,Ganeshpadu,Ganeshpadu,"SubCentre, Ganeshpadu",SubCentre,17.23475965,80.90688229,Rural,Functional,Private - for profit
Telangana,Bhadradri Kothagudem,Tekulapalli,GANGARAM,MAIN ROAD,BOMMANAPALLY,"SubCentre, Gangaram",SubCentre,17.666531,80.5549561,Rural,Functional,Private - for profit
Telangana,Bhadradri Kothagudem,Chandrugonda,,,,"SubCentre, Ganngapedu",SubCentre,17.393137,80.593833,Rural,Functional,State Government
Telangana,Bhadradri Kothagudem,Kothagudem,,,Near Govt School,"SubCentre, Garibpeta",SubCentre,17.47393518,80.63050747,Rural,Functional,State Government
Telangana,Bhadradri Kothagudem,Dammapeta,Main Road,"Main Road, Gattugudem",Gattugudem,"SubCentre, Gattugudem",SubCentre,17.75171121,80.92919827,Rural,Functional,Private - for profit
Telangana,Bhadradri Kothagudem,Cherla,,NEAR MARKET YARD,,"SubCentre, Gompalli",SubCentre,18.05645734,80.80176115,Rural,Functional,State Government
Telangana,Bhadradri Kothagudem,Kothagudem,,,Near AWC,"SubCentre, Goutampur",SubCentre,17.48605153,80.64123631,Rural,Functional,State Government
Telangana,Bhadradri Kothagudem,Aswaraopeta,GUMMDAVALLY,BESIDE RAMALAYAM TEMPLE,BESIDE RAMALAYAM TEMPLE,"SubCentre, Gummadavalli",SubCentre,17.4185199,81.1471836,Rural,Functional,Private - for profit
Telangana,Bhadradri Kothagudem,Chandrugonda,,on the way to kattugudem,,"SubCentre, Gumpena",SubCentre,17.3292875,80.6995475,Rural,Functional,State Government
Telangana,Bhadradri Kothagudem,Gundala,GUNDALA,NEAR POLICE STATION,OPP- MEESVA,"SubCentre, Gundala",SubCentre,17.9116758,80.3254886,Rural,Functional,Private - for profit
Telangana,Bhadradri Kothagudem,Julurpadu,Gundepudi,Surarm Road,,"SubCentre, Gundepudi",SubCentre,17.39327547,80.51909924,Rural,Functional,State Government
Telangana,Bhadradri Kothagudem,Chandrugonda,,,Temple,"SubCentre, Gurvaigudem",SubCentre,17.2087304,79.9437532,Rural,Functional,State Government
Telangana,Bhadradri Kothagudem,Kothagudem,Hemachandrapuram,Hemachandrapuram,Hemachandrapuram,"SubCentre, Hemachandra Puram",SubCentre,17.55987826,80.59675455,Rural,Functional,Private - for profit
Telangana,Bhadradri Kothagudem,Burgampahad,MPP School,main road Eravendi,GP office road,"SubCentre, Iravendi",SubCentre,17.7378895,80.8702955,Rural,Functional,Private - for profit
Telangana,Bhadradri Kothagudem,Mulkalapally,Near Water Tank,Main Road,Near Water Tank,"SubCentre, Jagannadhapuram",SubCentre,17.4327909,80.86456776,Rural,Functional,State Government
Telangana,Bhadradri Kothagudem,Pinapaka,JAGGARAM,PRIMARY SCHOOL,PRIMARY SCHOOL,"SubCentre, Jaggaram",SubCentre,17.3612087,80.9152434,Rural,Functional,Private - for profit
Telangana,Bhadradri Kothagudem,Pinapaka,JANAMPETA,ST COLONY,JANAMPETA,"SubCentre, Janampeta",SubCentre,18.093804,80.6895583,Rural,Functional,Private - for profit
Telangana,Bhadradri Kothagudem,Julurpadu,,Mainroad,,"SubCentre, Julurpadu",SubCentre,17.4071061,80.50286,Rural,Functional,State Government
Telangana,Bhadradri Kothagudem,Mulkalapally,Alligumpu Road,Alligumpu Road,Alligumpu Road,"SubCentre, K.Gangaram",SubCentre,17.46808139,80.88774204,Rural,Functional,State Government
Telangana,Bhadradri Kothagudem,Kothagudem,Holithanda,Holithanda,Holithanda,"SubCentre, K.K.Ramavaram",SubCentre,17.5222602,80.6313041,Rural,Functional,Private - for profit
Telangana,Bhadradri Kothagudem,Gundala,AWWSchool,Kachanapalli,AWW Centre,"SubCentre, Kachanapalli",SubCentre,17.7458469,79.309937,Rural,Functional,Private - for profit
Telangana,Bhadradri Kothagudem,Julurpadu,,Kakrla sc colony,,"SubCentre, Kakarla",SubCentre,17.4248885,80.54871082,Rural,Functional,State Government
Telangana,Bhadradri Kothagudem,Manuguru,KAMALAPURAM,GOVT PS SCHOOL,KAMALAPURAM,"SubCentre, Kamalapuram",SubCentre,17.0878471,80.1268072,Urban,Functional,Private - for profit
Telangana,Bhadradri Kothagudem,Mulkalapally,Ashrama High School,Ashrama High School,Ashrama High School,"SubCentre, Kamalapuram",SubCentre,17.0878471,80.1268072,Rural,Functional,State Government
Telangana,Bhadradri Kothagudem,Pinapaka,KARAKAGUDEM,MAIN ROOD,RACE MELL,"SubCentre, Karakagudem",SubCentre,18.0383447,80.6049374,Rural,Functional,Private - for profit
Telangana,Bhadradri Kothagudem,Aswaraopeta,KAVADIUGNLDA,NEAR GOVT ASHRAM HOSTER,NEAR GOVT ASHRAM HOSTER,"SubCentre, Kavadikondla",SubCentre,17.3774617,81.2794123,Rural,Functional,Private - for profit
Telangana,Bhadradri Kothagudem,Julurpadu,,Mainroad,,"SubCentre, Kommugudem",SubCentre,17.4869772,80.3014625,Rural,Functional,State Government
Telangana,Bhadradri Kothagudem,Manuguru,KONDAIGUDEM,RAMANUJAVARAM,AWC  RAMANJAVARAM 1,"SubCentre, Kondaigudem",SubCentre,17.4099867,80.2153998,Rural,Functional,State Government
Telangana,Bhadradri Kothagudem,Tekulapalli,KOPPURAI,MAIN BAZAR,BEHIND G P,"SubCentre, Koppurai",SubCentre,17.734699,80.5105028,Rural,Functional,State Government
Telangana,Bhadradri Kothagudem,Tekulapalli,KOYAGUDEM,GP ROAD,NEAR GP,"SubCentre, Koyagudem",SubCentre,17.2518716,80.1793468,Rural,Functional,Private - for profit
Telangana,Bhadradri Kothagudem,Cherla,,DOSALLPALLI ROAD,,"SubCentre, Koyyuru",SubCentre,18.0908672,80.7983658,Rural,Functional,State Government
Telangana,Bhadradri Kothagudem,Burgampahad,krishnasagar sc colony,krishnasagar sc colony,Govt Junior College,"SubCentre, Krishnasagar",SubCentre,17.7113912,80.8052,Rural,Functional,State Government
Telangana,Bhadradri Kothagudem,Manuguru,KUNAVARAM,KUNAVARAM,BODRAI CENTRE,"SubCentre, Kunavaram",SubCentre,17.574973,81.2539483,Rural,Functional,Private - for profit
Telangana,Bhadradri Kothagudem,Manuguru,KUNAVARAM D TYPE,KUNAVARAM D Type,EXLLENT SCHOOL,"SubCentre, Kunavaram D Type",SubCentre,17.574973,81.2539483,Urban,Functional,Private - for profit
Telangana,Bhadradri Kothagudem,Cherla,,GOVT SCHOOL ROAD,NEAR SCHOOL,"SubCentre, Kurnapalli",SubCentre,18.0517075,80.9456553,Rural,Functional,State Government
Telangana,Bhadradri Kothagudem,Kothagudem,Laxmidevipalli,Laxmidevipalli,Laxmidevipalli,"SubCentre, Laxmidevipalli",SubCentre,18.6070746,79.0221257,Rural,Functional,Private - for profit
Telangana,Bhadradri Kothagudem,Burgampahad,Chinthavari bajar,School area GP Road,GP Road,"SubCentre, Laxmipuram",SubCentre,17.1722673,80.1212235,Rural,Functional,State Government
Telangana,Bhadradri Kothagudem,Dammapeta,ST Colony,"Opp. Church, Lingalapalli",Lingalapalli,"SubCentre, Lingalapalli",SubCentre,17.1482377,80.8017877,Rural,Functional,Private - for profit
Telangana,Bhadradri Kothagudem,Chandrugonda,,opp surpanch house,,"SubCentre, Maddukur",SubCentre,17.3138066,80.6493396,Rural,Functional,State Government
Telangana,Bhadradri Kothagudem,Mulkalapally,BC Colony area,Main Road,Nursery of Plants,"SubCentre, Madharam",SubCentre,17.4252406,78.7419528,Rural,Functional,State Government
Telangana,Bhadradri Kothagudem,Dammapeta,Post Office,"Near Post Office, Malkaram",Malkaram,"SubCentre, Malkaram",SubCentre,17.296912,81.0478643,Rural,Functional,Private - for profit
Telangana,Bhadradri Kothagudem,Manuguru,PVC MALLARAM,PVC MALLARAM,ASHA HOME,"SubCentre, Mallaram",SubCentre,17.2192826,80.3825668,Rural,Functional,Private - for profit
Telangana,Bhadradri Kothagudem,Cherla,,,CHERLA MAIN ROAD,"SubCentre, Mamidigudem",SubCentre,17.9618264,80.9069472,Rural,Functional,State Government
Telangana,Bhadradri Kothagudem,Aswaraopeta,KOTHA MAMILLAVARI GUDEM,KMV GUDEM,OPP. ANGANWADI CENTER,"SubCentre, Mamillavarigudem",SubCentre,17.2429571,81.1203003,Rural,Functional,Private - for profit
Telangana,Bhadradri Kothagudem,Dammapeta,Mandalapalli,Backside of GP,Mandalapalli,"SubCentre, Mandalapalli",SubCentre,17.25049852,81.00996494,Rural,Functional,State Government
Telangana,Bhadradri Kothagudem,Manuguru,MANUGURU,WATER TANK LINE,ASHA HOME,"SubCentre, Manuguru",SubCentre,17.9312067,80.8266197,Urban,Functional,Private - for profit
Telangana,Bhadradri Kothagudem,Gundala,Markodu,Markodu,Markodu,"SubCentre, Markodu",SubCentre,17.7046767,80.5388027,Rural,Functional,State Government
Telangana,Bhadradri Kothagudem,Dammapeta,,"Main Road, Moddulagudem",Moddulagudem,"SubCentre, Moddulagudem",SubCentre,17.25836745,80.94224453,Rural,Functional,State Government
Telangana,Bhadradri Kothagudem,Dammapeta,,"Main Road, Ravikoyyalapadu",Mondivarre,"SubCentre, Mondivaram",SubCentre,17.30700803,80.92089415,Rural,Functional,State Government
Telangana,Bhadradri Kothagudem,Burgampahad,M.P Banjara sc colony,Burgampadu main road,Near MPP school,"SubCentre, Morampallibanjara",SubCentre,17.64917492,80.81538677,Rural,Functional,Private - for profit
Telangana,Bhadradri Kothagudem,Pinapaka,MOTHE,MOTHE,MAINROAD,"SubCentre, Mothe",SubCentre,18.0035016,80.5521785,Rural,Functional,Private - for profit
Telangana,Bhadradri Kothagudem,Mulkalapally,Mukamamidi Mainraod,Mukamamidi Mainraod,Near UPS School,"SubCentre, Mukamamidi",SubCentre,17.4890749,80.8931184,Rural,Functional,Private - for profit
Telangana,Bhadradri Kothagudem,Mulkalapally,Opp.Gramenabank,Main Road,Opp.Gramenabank,"SubCentre, Mulakalapalli",SubCentre,17.5069027,80.8350109,Rural,Functional,Private - for profit
Telangana,Bhadradri Kothagudem,Dammapeta,"AWW, Center","AWW, Center",Mustibanda,"SubCentre, Mustibanda",SubCentre,17.24443265,80.97365856,Rural,Functional,Private - for profit
Telangana,Bhadradri Kothagudem,Gundala,MUTHAPURAM,MUKTHI GUMPU,NEAR SARPANCH HOHSE,"SubCentre, Muthapuram",SubCentre,17.916808,80.3992652,Rural,Functional,State Government
Telangana,Bhadradri Kothagudem,Tekulapalli,MUTHYALAMPADU,OPP VATTM SRINU,NEAR GP,"SubCentre, Muthyalampadu",SubCentre,17.56124893,80.50153613,Rural,Functional,Private - for profit
Telangana,Bhadradri Kothagudem,Burgampahad,Pragathi school area,Pragathi school area,Pragathi school area,"SubCentre, Muthyalampeta",SubCentre,17.71857116,80.79397738,Rural,Functional,Private - for profit
Telangana,Bhadradri Kothagudem,Kothagudem,Mylaram,Mylaram,Mylaram,"SubCentre, Mylaram",SubCentre,18.3026454,79.8233711,Rural,Functional,Private - for profit
Telangana,Bhadradri Kothagudem,Dammapeta,,"Main Road, Nacharam",Nacharam,"SubCentre, Nacharam",SubCentre,17.23467767,80.87752819,Rural,Functional,Private - for profit
Telangana,Bhadradri Kothagudem,Dummugudem,AWW CENTER,,,"SubCentre, Nadikudi",SubCentre,17.8092527,80.9069472,Rural,Functional,State Government
Telangana,Bhadradri Kothagudem,Dammapeta,SC Colony,"Nagupalli SC Colony, Road",Nagupalli,"SubCentre, Nagupalli",SubCentre,17.283826,80.8875861,Rural,Functional,Private - for profit
Telangana,Bhadradri Kothagudem,Aswaraopeta,NANDIPADU,MAIN ROAD BHADRACHALAM`,MAIN ROAD BHADRACHALAM,"SubCentre, Nandipadu",SubCentre,17.4527035,81.1251235,Rural,Functional,State Government
Telangana,Bhadradri Kothagudem,Aswaraopeta,NARAMVARIGUDEM,NEAR ANGANWADICENTER,NEAR ANGANWADICENTER,"SubCentre, Naramvarigudem",SubCentre,17.261145,81.0830543,Rural,Functional,Private - for profit
Telangana,Bhadradri Kothagudem,Aswaraopeta,NARAYANAPURAM,MAINROAD,NEAR HIGH SCHOOL,"SubCentre, Narayanapuram",SubCentre,17.1767635,80.8661451,Rural,Functional,State Government
Telangana,Bhadradri Kothagudem,Dummugudem,NARSAPURAM,,BUS STAND,"SubCentre, Narsapuram",SubCentre,17.3291312,80.7269854,Rural,Functional,Others
Telangana,Bhadradri Kothagudem,Dummugudem,,NARSAPURAM,BUS STAND,"SubCentre, Narsapuram",SubCentre,17.3291312,80.7269854,Rural,Functional,Private - for profit
Telangana,Bhadradri Kothagudem,Burgampahad,N.N Prolu bc colony,N.N Prolu bc colony,AWC centre,"SubCentre, NN Prolu",SubCentre,17.69415418,80.82817554,Rural,Functional,Private - for profit
Telangana,Bhadradri Kothagudem,Manuguru,NTR NAGAR,SRI SRI NAGAR,AIRTEL TOWER,"SubCentre, NTR Nagar",SubCentre,17.1999341,80.8287826,Rural,Functional,Private - for profit
Telangana,Bhadradri Kothagudem,Julurpadu,,Main road,,"SubCentre, P Narsapuram",SubCentre,17.42480661,80.51755428,Rural,Functional,State Government
Telangana,Bhadradri Kothagudem,Mulkalapally,School Road,School Rpad,Opp. Church,"SubCentre, Pagadalapalli",SubCentre,17.5461459,80.8758289,Rural,Functional,State Government
Telangana,Bhadradri Kothagudem,Manuguru,PAGIDERU,PAGIDERU,NEAR UPS SCHOOL,"SubCentre, Pagideru",SubCentre,17.9625304,80.7387188,Rural,Functional,State Government
Telangana,Bhadradri Kothagudem,Pinapaka,PANDURANGAPURAM,PANDURANGAPURAM,PANDURANGAPURAM,"SubCentre, Pandurangapuram",SubCentre,17.2752513,80.1805318,Rural,Functional,Private - for profit
Telangana,Bhadradri Kothagudem,Julurpadu,Near temple,GP office,,"SubCentre, Papakollu",SubCentre,17.4180504,80.47820091,Rural,Functional,State Government
Telangana,Bhadradri Kothagudem,Kothagudem,Patha Anjanapuram,Govt School Road,,"SubCentre, Patha Anjanapuram",SubCentre,17.2966952,80.3811751,Rural,Functional,State Government
Telangana,Bhadradri Kothagudem,Pinapaka,PATHA REDDYPALEM,NEAR PANCHAYAT OFFICE,NEAR PANCHAYAT OFFICE,"SubCentre, Pathareddypalem",SubCentre,17.19383752,80.42316198,Rural,Functional,State Government
Telangana,Bhadradri Kothagudem,Dammapeta,,"Opp. ZP School, Patwarigudem",Patwarigudem,"SubCentre, Patwarigudem",SubCentre,17.34852879,80.96172541,Rural,Functional,Private - for profit
Telangana,Bhadradri Kothagudem,Cherla,,THALIPARU ROAD,MAIN ROAD,"SubCentre, Pedamidisileru",SubCentre,18.0402536,80.849178,Rural,Functional,State Government
Telangana,Bhadradri Kothagudem,Kothagudem,Penagadapa,,Main Road,"SubCentre, Penagadapa",SubCentre,17.4543014,80.6493396,Rural,Functional,State Government
Telangana,Bhadradri Kothagudem,Chandrugonda,,sc colony,,"SubCentre, Pentlam",SubCentre,17.3470921,80.7671656,Rural,Functional,State Government
Telangana,Bhadradri Kothagudem,Kothagudem,Penubally,,Near G.P.Office,"SubCentre, Penuballi",SubCentre,17.5025874,80.68363667,Rural,Functional,State Government
Telangana,Bhadradri Kothagudem,Aswaraopeta,PERAIUGDEM MAINROAD,PERAIGUDEM,PERAIUGDEM MAINROAD,"SubCentre, Peraigudem",SubCentre,17.2429571,81.1203003,Rural,Functional,State Government
Telangana,Bhadradri Kothagudem,Manuguru,PILOT COLONY,EXCELLENT BUS STOP,EXCELLENT BUS STOP,"SubCentre, Pilot Colony",SubCentre,17.9397812,80.8128636,Urban,Functional,Private - for profit
Telangana,Bhadradri Kothagudem,Pinapaka,PINAPAKA,BANKCENTER,BANKCENTER,"SubCentre, Pinapaka",SubCentre,17.1774785,80.4109897,Rural,Functional,Private - for profit
Telangana,Bhadradri Kothagudem,Chandrugonda,,,,"SubCentre, Pokalagudem",SubCentre,17.3875231,80.5834214,Rural,Functional,State Government
Telangana,Bhadradri Kothagudem,Pinapaka,POTHUREDDI PALLI,PS.SCHOOL,PS.SCHOOL,"SubCentre, Pothureddipalli",SubCentre,17.19066019,80.42080164,Rural,Functional,State Government
Telangana,Bhadradri Kothagudem,Chandrugonda,,gollabazar,,"SubCentre, Rajapuram",SubCentre,17.34826253,80.73118687,Rural,Functional,State Government
Telangana,Bhadradri Kothagudem,Manuguru,RAJUPETA,RAMALAYAM STREET,RAMALAYAM STREET,"SubCentre, Rajupeta",SubCentre,17.8296806,80.9677658,Urban,Functional,State Government
Telangana,Bhadradri Kothagudem,Kothagudem,,,,"SubCentre, Ramnagar",SubCentre,17.9176053,80.8753101,Rural,Functional,State Government
Telangana,Bhadradri Kothagudem,Chandrugonda,AWW,,,"SubCentre, Ravikampadu",SubCentre,17.35801149,80.60535908,Rural,Functional,State Government
Telangana,Bhadradri Kothagudem,Aswaraopeta,REDDYGUDEM,MAIN ROAD,"REDDYGUDEM, MAIN ROAD","SubCentre, Reddygudem",SubCentre,17.1547042,80.2931039,Rural,Functional,State Government
Telangana,Bhadradri Kothagudem,Kothagudem,Regalla,Regalla,Regalla,"SubCentre, Regalla",SubCentre,17.9489961,80.5771737,Rural,Functional,State Government
Telangana,Bhadradri Kothagudem,Dummugudem,MAIN ROAD SIDE,,,"SubCentre, Regupalli",SubCentre,17.8029305,80.889315,Rural,Functional,State Government
Telangana,Bhadradri Kothagudem,Cherla,,NEAR MARKET YARD,,"SubCentre, Ricepeta",SubCentre,18.0670153,80.8323668,Rural,Functional,State Government
Telangana,Bhadradri Kothagudem,Kothagudem,,,Near AWC,"SubCentre, Rudrampur",SubCentre,17.4792543,80.6507268,Rural,Functional,State Government
Telangana,Bhadradri Kothagudem,Manuguru,SAMBAIGUEM,SAMBAIGUDEM,MASID BAZAR,"SubCentre, Sambaigudem",SubCentre,18.0058783,80.7590284,Rural,Functional,Private - for profit
Telangana,Bhadradri Kothagudem,Manuguru,SAMTHISINGARAM,SAMTHISINGARAM,RAMALAYAM STREET,"SubCentre, Samithisingaram",SubCentre,17.9343273,80.8196597,Rural,Functional,Private - for profit
Telangana,Bhadradri Kothagudem,Tekulapalli,SAMPATH NGR,MAIN ROAD,OPP BORE PUMP,"SubCentre, Sampathnagar",SubCentre,17.663431,80.5362053,Rural,Functional,State Government
Telangana,Bhadradri Kothagudem,Burgampahad,Gouthapuram SC colony,Gouthapuram SC colony,Near awc,"SubCentre, Sanjeevareddypalem",SubCentre,17.6706402,80.8585357,Rural,Functional,Private - for profit
Telangana,Bhadradri Kothagudem,Burgampahad,Reddy bajar,Conductors colony,Water tank,"SubCentre, Sarapaka",SubCentre,17.6943033,80.8628439,Rural,Functional,Private - for profit
Telangana,Bhadradri Kothagudem,Kothagudem,Sarvaram,Gudi Thanda,,"SubCentre, Sarvaram",SubCentre,17.51764846,80.57420254,Rural,Functional,State Government
Telangana,Bhadradri Kothagudem,Gundala,SAYANAPALLI,KOTHURUNGUMPU,KOTHURU GUMPU,"SubCentre, Sayanapalli",SubCentre,17.9558454,80.3442869,Rural,Functional,State Government
Telangana,Bhadradri Kothagudem,Kothagudem,,,Main Road,"SubCentre, Seetampeta",SubCentre,17.7290474,80.916626,Rural,Functional,State Government
Telangana,Bhadradri Kothagudem,Pinapaka,SEETHAMPETA,NEAR PRIMARY SCHOOL,NEAR PRIMARY SCHOOL,"SubCentre, Seethampeta",SubCentre,17.5316745,80.1477429,Rural,Functional,State Government
Telangana,Bhadradri Kothagudem,Manuguru,SHESHAGIRINAGAR,BUSSTAND 2CD LINE,SHESHAGIRINAGAR,"SubCentre, Sheshagirinagar",SubCentre,17.9312067,80.8266197,Urban,Functional,Private - for profit
Telangana,Bhadradri Kothagudem,Gundala,SETTIPALLI,REDDY BAJAR,NEAR GOVT SCHOOL,"SubCentre, Shettipalli",SubCentre,17.7750485,80.3769999,Rural,Functional,State Government
Telangana,Bhadradri Kothagudem,Manuguru,SHIVALINGAPURAM,WATER TANK LINE,WATER TANK LINE,"SubCentre, Shivalingapuram",SubCentre,17.9591816,80.8197853,Urban,Functional,Private - for profit
Telangana,Bhadradri Kothagudem,Kothagudem,Singabhupalem,Near AWC,,"SubCentre, Singabupalem",SubCentre,17.50614814,80.53811073,Rural,Functional,State Government
Telangana,Bhadradri Kothagudem,Kothagudem,Seetharampuram,Seetharampuram,Seetharampuram,"SubCentre, Sitarampuram",SubCentre,17.5240586,80.3192216,Rural,Functional,Private - for profit
Telangana,Bhadradri Kothagudem,Cherla,,Mainroad,,"SubCentre, SN Puram",SubCentre,18.0171698,80.8668369,Rural,Functional,State Government
Telangana,Bhadradri Kothagudem,Kothagudem,Srinagar 5th Line,Srinagar 5th Line,Near Library,"SubCentre, Sri Nagar Colony",SubCentre,17.2438426,80.1733509,Rural,Functional,Private - for profit
Telangana,Bhadradri Kothagudem,Kothagudem,,,Near Veternary Hospital,"SubCentre, Sujatha Nagar",SubCentre,17.4847791,80.5727702,Rural,Functional,State Government
Telangana,Bhadradri Kothagudem,Tekulapalli,SULHANAGAR,SCHOOL LINE,NREAR PRIMARY SCHOOL,"SubCentre, Sulhanagar",SubCentre,17.56122847,80.50189555,Rural,Functional,Private - for profit
Telangana,Bhadradri Kothagudem,Manuguru,SUNDHARAYANAGAR,BRAETMENT SCHOOL LINE,BRAETMENT SCHOOL LINE,"SubCentre, Sundaraiah Nagar",SubCentre,17.0976463,80.0106966,Urban,Functional,Private - for profit
Telangana,Bhadradri Kothagudem,Tekulapalli,THADIKELPAUDI,TEMPLE ROAD,BESIDE TEMPLE,"SubCentre, Tadekalapudi",SubCentre,17.5162135,80.4646258,Rural,Functional,Private - for profit
Telangana,Bhadradri Kothagudem,Cherla,,,MAIN ROAD,"SubCentre, Tegada",SubCentre,18.03638169,80.84201574,Rural,Functional,State Government
Telangana,Bhadradri Kothagudem,Burgampahad,boti meeda,Tekulcheruvu Bc colony,GP Building,"SubCentre, Tekulacheruvu",SubCentre,17.6473746,80.8467741,Rural,Functional,State Government
Telangana,Bhadradri Kothagudem,Tekulapalli,TEKULAPLLY,MAIN ROAD,MAIN ROAD NEAR GOVT SCHOOL,"SubCentre, Tekulapalli",SubCentre,17.5609078,80.475062,Rural,Functional,Private - for profit
Telangana,Bhadradri Kothagudem,Mulkalapally,Thimmampeta,Thimmampeta,Kiranam  Shop,"SubCentre, Thimmampeta",SubCentre,18.2204344,80.866558,Rural,Functional,State Government
Telangana,Bhadradri Kothagudem,Aswaraopeta,MAIN ROAD,THIRUMALAKUNTA,,"SubCentre, Thirumalakunta",SubCentre,17.4079689,81.0423429,Rural,Functional,Private - for profit
Telangana,Bhadradri Kothagudem,Kothagudem,3-In Cline,Near Barium Thanda,,"SubCentre, Three Incline",SubCentre,17.5055268,80.6478728,Rural,Functional,State Government
Telangana,Bhadradri Kothagudem,Dummugudem,MAIN ROAD SIDE,MAIN ROAD SIDE,MAIN ROAD SIDE,"SubCentre, Thurubaka",SubCentre,17.7559435,80.8958843,Rural,Functional,State Government
Telangana,Bhadradri Kothagudem,Chandrugonda,GP Area,,,"SubCentre, Tippanapalli",SubCentre,17.3962733,80.6604364,Rural,Functional,State Government
Telangana,Bhadradri Kothagudem,Pinapaka,TOGGUDEM,A W C CENTER,AWC CENTER,"SubCentre, Toggudem",SubCentre,18.0182682,80.6597429,Rural,Functional,State Government
Telangana,Bhadradri Kothagudem,Chandrugonda,Temple,,,"SubCentre, Tungaram",SubCentre,17.4346999,80.5951989,Rural,Functional,State Government
Telangana,Bhadradri Kothagudem,Kothagudem,2-In Cline,,Near Govt School,"SubCentre, Two Incline",SubCentre,17.54555724,80.61459661,Rural,Functional,State Government
Telangana,Bhadradri Kothagudem,Cherla,,,CHERLA ROAD,"SubCentre, Unjupalli",SubCentre,18.1353446,80.8516173,Rural,Functional,State Government
Telangana,Bhadradri Kothagudem,Pinapaka,UPPAKA,MAINBAZAR,MAINBAZAR,"SubCentre, Uppaka",SubCentre,18.0269305,80.7042387,Rural,Functional,Private - for profit
Telangana,Bhadradri Kothagudem,Aswaraopeta,VEDHANTHAPURAM,VEDHANTHAPURAM,MAIN ROAD,"SubCentre, Vedanthapuram",SubCentre,17.2769217,81.1251235,Rural,Functional,Private - for profit
Telangana,Bhadradri Kothagudem,Kothagudem,,Colony Bazar,,"SubCentre, Vepalagadda",SubCentre,17.5560036,80.6143962,Rural,Functional,State Government
Telangana,Bhadradri Kothagudem,Kothagudem,VIDYA NAGAR,,Near G.P.Office,"SubCentre, Vidya Nagar-I",SubCentre,17.5522457,80.6306103,Rural,Functional,State Government
Telangana,Bhadradri Kothagudem,Kothagudem,Vidyanagar,,Near G.P.,"SubCentre, VidyaNagar-II",SubCentre,17.5522457,80.6306103,Rural,Functional,State Government
Telangana,Bhadradri Kothagudem,Manuguru,VIJAYANAGARM,VIJAYANAGARAM,BACK SIDE SCHOOL,"SubCentre, Vijayanagar",SubCentre,17.6158849,80.776515,Rural,Functional,Private - for profit
Telangana,Bhadradri Kothagudem,Aswaraopeta,VINAYAKAPURAM,VINAYAKAPURAM,BCM MAIN ROAD,"SubCentre, Vinayakapuram",SubCentre,17.3599731,81.1154703,Rural,Functional,State Government
Telangana,Bhadradri Kothagudem,Julurpadu,,,Near 14 No Forast Check Post,"Urban Primary  Health Centre, Ramavaram",Urban Health Centre (UPHC),17.52221156,80.63190222,Urban,Functional,State Government
Telangana,Bhadradri Kothagudem,Julurpadu,,,Beside Singareni Main Hospital,"Urban Primary Health Centre, Old Kothagudem",Urban Health Centre (UPHC),17.5434608,80.6371636,Urban,Functional,State Government
Telangana,Bhadradri Kothagudem,Julurpadu,,,Beside Durga Takies,"Urban Primary Health Centre, Safai Basti",Urban Health Centre (UPHC),17.4056224,80.50715804,Urban,Functional,State Government
Telangana,Bhadradri Kothagudem,Bhadrachalam,GOVT P M M SCHOOL,MP COLONY,GOVT P M M SCHOOL,"SubCentre, Alluri Seetharamaraju Colony",SubCentre,17.67714516,80.89458704,Rural,Functional,State Government
Telangana,Bhadradri Kothagudem,Bhadrachalam,CHERCHE,&#34;BHUPATHI RAO  COLONY&#34;,,"SubCentre, Bhupathirao Colony",SubCentre,17.668614,80.8938099,Rural,Functional,Others
Telangana,Bhadradri Kothagudem,Bhadrachalam,KRANTHI ITI,&#34;ADHARSHA  NAGAR COLONY&#34;,,"SubCentre, Jagadeesh Colony",SubCentre,17.67195219,80.89750528,Rural,Functional,Others
Telangana,Bhadradri Kothagudem,Bhadrachalam,WATHER TANK,ESWARAMMAGUTTA,,"SubCentre, Kalyanamandapam",SubCentre,17.242196,80.13946,Rural,Functional,State Government
Telangana,Bhadradri Kothagudem,Bhadrachalam,GUNTURU SATRAM,BRAMHANA BAZAR,,"SubCentre, Kambalapadu",SubCentre,17.66177024,80.88986635,Rural,Functional,Others
Telangana,Bhadradri Kothagudem,Bhadrachalam,LACHIGUDEM,LACHIGUDEM,,"SubCentre, Lachigudem",SubCentre,17.77933855,81.0285377,Rural,Functional,Others
Telangana,Bhadradri Kothagudem,Bhadrachalam,MAIN ROAD SIDE,,,"SubCentre, Maraigudem",SubCentre,17.7878134,81.0002664,Rural,Functional,State Government
Telangana,Bhadradri Kothagudem,Bhadrachalam,BRESH SCHOOL,SANTHI NAGAR,,"SubCentre, Maruthinagar",SubCentre,17.0606352,80.9836539,Rural,Functional,State Government
Telangana,Bhadradri Kothagudem,Bhadrachalam,HP GAS GUDAM,S R N COLONY,,"SubCentre, Rajeev Colony",SubCentre,17.6640279,80.9055645,Rural,Functional,State Government
Telangana,Bhadradri Kothagudem,Dummugudem,"MULAKAPADU ,MAIN ROAD",,CHERLA ROAD,"Primary Health Centre, Dummugudem",Primary Health Centre,17.8508192,80.886203,Rural,Functional,Central Government - CGHS
Telangana,Bhadradri Kothagudem,Dummugudem,,BANDI REVU,Temple Raod,"Primary Health Centre, Parnasala",Primary Health Centre,17.92353606,80.90641022,Rural,Functional,State Government
Telangana,Bhadradri Kothagudem,Dummugudem,,,Govt. High School,"SubCentre, Arlagudem",SubCentre,17.8182011,80.9732924,Rural,Functional,State Government
Telangana,Bhadradri Kothagudem,Dummugudem,,,MANI ROAD,"SubCentre, Chinnanallapalli",SubCentre,17.8623158,80.9124781,Rural,Functional,State Government
Telangana,Bhadradri Kothagudem,Dummugudem,,,laxmipuram road,"SubCentre, Dummugudem",SubCentre,17.8508192,80.886203,Rural,Functional,State Government
Telangana,Bhadradri Kothagudem,Dummugudem,,,Near High school,"SubCentre, Gouraram",SubCentre,17.91655355,80.95177174,Rural,Functional,State Government
Telangana,Bhadradri Kothagudem,Dummugudem,,,,"SubCentre, M Kasinagaram",SubCentre,17.87555128,80.89297771,Rural,Functional,State Government
Telangana,Bhadradri Kothagudem,Dummugudem,,,laxmipuram road,"SubCentre, Manguvaibaduva",SubCentre,17.8513539,80.9290685,Rural,Functional,State Government
Telangana,Bhadradri Kothagudem,Dummugudem,,mulakapadu road,,"SubCentre, Mulakapadu",SubCentre,17.84900094,80.89970469,Rural,Functional,State Government
Telangana,Bhadradri Kothagudem,Dummugudem,,,NEAR SCHOOL,"SubCentre, Parnasala",SubCentre,17.9268828,80.9056853,Rural,Functional,State Government
Telangana,Bhadradri Kothagudem,Aswapuram,ASWAPURAM,Sai Baba Baba Temple,NEAR SAIBABA TEMPEL,"Primary Health Centre, Aswapuram",Primary Health Centre,17.8382802,80.8377789,Rural,Functional,State Government
Telangana,Bhadradri Kothagudem,Aswapuram,"AW CENTER, ASWAPURAM",BUDUGUBAZAR,KOMMUGUDEMROAD,"SubCentre, Aswapuram-I",SubCentre,17.8382802,80.8377789,Rural,Functional,Private - for profit
Telangana,Bhadradri Kothagudem,Aswapuram,NEAR TEMPLE,CHAVTIGUDEM,POLICE STATION,"SubCentre, Aswapuram-II",SubCentre,17.8382802,80.8377789,Rural,Functional,Private - for profit
Telangana,Bhadradri Kothagudem,Aswapuram,B TYPE,B.TYPE,"H,W P QUETERS","SubCentre, Aswapuram-III",SubCentre,17.8382802,80.8377789,Rural,Functional,Private - for profit
Telangana,Bhadradri Kothagudem,Aswapuram,CHINTRIYALA,AW CENTRE,NEAR PRIMARY SCHOOL,"SubCentre, Chintriyala",SubCentre,17.8036036,80.8488498,Rural,Functional,Private - for profit
Telangana,Bhadradri Kothagudem,Aswapuram,,GONDIGUDEM,ASHRAMA HIGH SCHOOL,"SubCentre, Gondigudem",SubCentre,17.8116822,80.771321,Rural,Functional,State Government
Telangana,Bhadradri Kothagudem,Aswapuram,KOMMUGUDEM,KOMMUGUDEM,AW CENTAR,"SubCentre, Kommugudem",SubCentre,17.4869772,80.3014625,Rural,Functional,State Government
Telangana,Bhadradri Kothagudem,Aswapuram,KUMMARIGUDEM,KUMMARIGUDEM,NEAR PRIMARY SCHOOL,"SubCentre, Kummarigudem",SubCentre,17.8985136,80.8709872,Rural,Functional,Private - for profit
Telangana,Bhadradri Kothagudem,Aswapuram,MITTAGUDEM,MITTAGUDEM,GCC STORE,"SubCentre, Mittagudem",SubCentre,17.889443,80.82999,Rural,Functional,State Government
Telangana,Bhadradri Kothagudem,Aswapuram,MONDIKUNTA,MALELAMADUGU ROAD,KAMATAM VENKANNA HOME,"SubCentre, Mondikunta",SubCentre,17.7589655,80.8350109,Rural,Functional,Private - for profit
Telangana,Bhadradri Kothagudem,Aswapuram,NELLIPAKA BANZAR,ERRAVENDI ROOD,AW CENTER,"SubCentre, Nellipaka Banjar",SubCentre,17.7801414,80.8488498,Rural,Functional,Private - for profit
Telangana,Bhadradri Kothagudem,Aswapuram,SEETHARAMPURAM,KTDM MAIN ROAD,ZPSS SCHOOL,"SubCentre, Seetarampuram",SubCentre,17.5240586,80.3192216,Rural,Functional,Private - for profit
Telangana,Bhadradri Kothagudem,Aswapuram,THUMMALACHERVU,V PURAM ROAD,NEAR AW CENTER,"SubCentre, Tummalachervu",SubCentre,17.7668532,80.81571823,Rural,Functional,Private - for profit
Telangana,Bhadradri Kothagudem,Palvoncha,Palwancha Municipality,Karakavagu,Karakavagu,Karakavagu (Basthi dawakhana),Urban health and wellness center (UHWC),17.625466,80.680268,Urban,Functional,State Government
Telangana,Bhadradri Kothagudem,Palvoncha,Jagannadhapuram,Bhadrachalam Road,Peddammagudi,"Primary Health Centre, Jaganadhapuram",Primary Health Centre,17.60614787,80.75406075,Rural,Functional,State Government
Telangana,Bhadradri Kothagudem,Palvoncha,ULVANOOR,Hostel Road,Hostel Road,"Primary Health Centre, Ulavanoor",Primary Health Centre,17.78538657,80.67179203,Rural,Functional,State Government
Telangana,Bhadradri Kothagudem,Palvoncha,Postoffice Road,Postoffice Road,near MPPS School,"SubCentre, Bollorigudem",SubCentre,17.6008352,80.703029,Urban,Functional,Private - for profit
Telangana,Bhadradri Kothagudem,Palvoncha,Yerakalabajaar,Yerakalabajaar,Yerakalabajaar,"SubCentre, Indiranagar Colony",SubCentre,17.59990469,80.72889254,Rural,Functional,Private - for profit
Telangana,Bhadradri Kothagudem,Palvoncha,PS School,AWW Straight,PS School,"SubCentre, Jagannadhapuram",SubCentre,17.607105,80.7533126,Rural,Functional,Private - for profit
Telangana,Bhadradri Kothagudem,Palvoncha,AHS Boys School,Kinnerasani,AHS Boys School,"SubCentre, Kinnerasani",SubCentre,17.6785891,80.6647442,Rural,Functional,State Government
Telangana,Bhadradri Kothagudem,Palvoncha,Sangam Road,Sangam Road,Sangam Road,"SubCentre, Nagaram",SubCentre,17.6118254,80.7602394,Rural,Functional,Private - for profit
Telangana,Bhadradri Kothagudem,Palvoncha,Vengalraocolony,Govt.School Back Road,Ramalayam Temple,"SubCentre, New Palvancha",SubCentre,17.6092171,80.7048084,Rural,Functional,Private - for profit
Telangana,Bhadradri Kothagudem,Palvoncha,Near Panchayathi Office,MPPS School,Near Panchayathi Office,"SubCentre, Pandurangapuram",SubCentre,17.2752513,80.1805318,Rural,Functional,Private - for profit
Telangana,Bhadradri Kothagudem,Palvoncha,Pinapaka,AWW Centre Route,Ambedkar Statue,"SubCentre, Pinapaka",SubCentre,17.1774785,80.4109897,Rural,Functional,Private - for profit
Telangana,Bhadradri Kothagudem,Palvoncha,Bus Shelter,PS School Subbanapalli,Bus Shelter,"SubCentre, Pusugudem",SubCentre,17.53626843,80.77796459,Rural,Functional,State Government
Telangana,Bhadradri Kothagudem,Palvoncha,Vernanity Hospital Opp,Vernanity Hospital Opp,Vernanity Hospital Opp,"SubCentre, Sangam",SubCentre,17.6060115,80.823938,Rural,Functional,Private - for profit
Telangana,Bhadradri Kothagudem,Palvoncha,Somulagudem,Somulagudem,Near Bus stand,"SubCentre, Somulagudem",SubCentre,17.6306429,80.7242136,Rural,Functional,Private - for profit
Telangana,Bhadradri Kothagudem,Palvoncha,Panchayathi Office,Panchayathi Road,Panchayathi Road,"SubCentre, Ulvanoor",SubCentre,17.78538657,80.67179203,Rural,Functional,State Government
Telangana,Bhadradri Kothagudem,Palvoncha,Panchayathi Office,AWW School,Panchayathi Office,"SubCentre, Yanambailu",SubCentre,17.6820712,80.6690885,Rural,Functional,Private - for profit
Telangana,Bhadradri Kothagudem,Palvoncha,GUDIPADU,GUDIPADU,GUDIPADU,"Urban Primary Health Centre, Gudipadu",Urban Health Centre (UPHC),17.2183687,80.8282077,Urban,Functional,Others
Telangana,Bhadradri Kothagudem,Palvoncha,SEKHARAM BANJARA,SEKHARAM BANJARA,NEAR NAVABHARATH,"Urban Primary Health Centre, Shekaram Banjara",Urban Health Centre (UPHC),17.58466118,80.66516697,Urban,Functional,Others
Telangana,Bhadradri Kothagudem,Yellandu,YELLANDU,MAIN ROAD YELLANDU,OPP-KALANJALI THEATER,"Community Health Center, Yellandu",Community Health Center,17.5941336,80.322363,Urban,Functional,State Government
Telangana,Bhadradri Kothagudem,Yellandu,KOMARARAM,KOMARARAM MAIN ROAD,NEAR SUBSTATION,"Primary Health Centre, Komararam",Primary Health Centre,17.7110252,80.3187529,Rural,Functional,State Government
Telangana,Bhadradri Kothagudem,Yellandu,"Main Road, Romped",Gundala Road,NEAR FOREST CHECKPOST,"Primary Health Centre, Rompedu",Primary Health Centre,17.64177271,80.29799938,Rural,Functional,State Government
Telangana,Bhadradri Kothagudem,Yellandu,Yellandu,Yellandu,Yellandu,"RK Puram, Govt building ( Basti Dawakhana)",Urban health and wellness center (UHWC),17.604257,80.322044,Urban,Functional,State Government
Telangana,Bhadradri Kothagudem,Yellandu,21PIT QUARTERS,ANJANYASWAMY TEMPLE ROAD,B.LAL TENT HOUSE,"SubCentre, 21 Pit",SubCentre,17.6127822,80.308079,Rural,Functional,Private - for profit
Telangana,Bhadradri Kothagudem,Yellandu,THILAK NAGAR,GUNDALA MAIN ROAD,Near bollinagar aww centre,"SubCentre, 21 Pit II",SubCentre,17.6127822,80.308079,Rural,Functional,State Government
Telangana,Bhadradri Kothagudem,Yellandu,CHERUVUKATTA BAZAR,CHRUVUKATTA BAZAR,NEAR PEDDAMMAGUDI TEMPLE,"SubCentre, 24 Pit",SubCentre,17.1600278,80.7196426,Rural,Functional,State Government
Telangana,Bhadradri Kothagudem,Yellandu,BOMBAITHANA,POLARAM,NEAR AWC,"SubCentre, Bombaithanda",SubCentre,17.7110252,80.3187529,Rural,Functional,Private - for profit
Telangana,Bhadradri Kothagudem,Yellandu,HANMANTHULAPADU,MAIN ROAD,NEAR AWW CENTRE,"SubCentre, Hanumanthulapadu",SubCentre,17.58956008,80.33075452,Rural,Functional,State Government
Telangana,Bhadradri Kothagudem,Yellandu,MAMIDICHETLA BAZAR,MAMIDICHETLA BAZAR,NEAR CHURCH,"SubCentre, Indiranagar",SubCentre,17.5883655,80.32742701,Urban,Functional,State Government
Telangana,Bhadradri Kothagudem,Yellandu,KOMARARAM,BAGATHSING CENTER,NEAR AWC,"SubCentre, Komararam",SubCentre,17.7110252,80.3187529,Rural,Functional,Private - for profit
Telangana,Bhadradri Kothagudem,Yellandu,KONGALAMADUGU,KONGALAMADUGU,NEAR SCHOOL,"SubCentre, Kommugudem",SubCentre,17.4869772,80.3014625,Rural,Functional,Private - for profit
Telangana,Bhadradri Kothagudem,Yellandu,LACHAGUDEM,LACHAGUDEM,SUVARNAPURAM ROAD,"SubCentre, Lachagudem",SubCentre,17.157219,80.2167942,Rural,Functional,State Government
Telangana,Bhadradri Kothagudem,Yellandu,MANIKYARAM,MANIKYARAM,NEAR SCHOOL,"SubCentre, Manikyaram",SubCentre,17.4812532,80.3415022,Rural,Functional,State Government
Telangana,Bhadradri Kothagudem,Yellandu,NIZAMPETA,NIZAMPETA ROAD,NEAR AWC,"SubCentre, Nizampeta",SubCentre,17.2442456,80.144254,Rural,Functional,Private - for profit
Telangana,Bhadradri Kothagudem,Yellandu,VODDUGUDEM,VODDUGUDEM,MADHARAM ROAD,"SubCentre, Oddugudem",SubCentre,17.40210065,80.77473521,Rural,Functional,Private - for profit
Telangana,Bhadradri Kothagudem,Yellandu,RAGABOINAGUDEM,MAIN ROAD,NEAR PANCHAYAT OFFICE,"SubCentre, Ragaboinagudem",SubCentre,17.5654695,80.3430137,Rural,Functional,State Government
Telangana,Bhadradri Kothagudem,Yellandu,KOTHAGUMPU,KOTHAGUMPU,NEAR AWW CENTRE,"SubCentre, Rompedu",SubCentre,17.6423426,80.2990246,Rural,Functional,Private - for profit
Telangana,Bhadradri Kothagudem,Yellandu,AZAD NAGAR,ANGANAVADI BAZAR,NEAR AWW CENTRE,"SubCentre, Sanjainagar",SubCentre,17.5605973,80.6225209,Rural,Functional,Private - for profit
Telangana,Bhadradri Kothagudem,Yellandu,SATYANARAYANAPURAM,DARGA ROAD,NEAR GCC STORE,"SubCentre, Satyanarayanapuram",SubCentre,18.0171698,80.8668369,Rural,Functional,Private - for profit
Telangana,Bhadradri Kothagudem,Yellandu,LENIN NAGAR,LENIN NAGAR MAIN ROAD,NEAR AWW CENTRE,"SubCentre, Substation",SubCentre,17.57491412,80.33813596,Urban,Functional,State Government
Telangana,Bhadradri Kothagudem,Yellandu,MODUGULAGUDM,KAMMAVARI BAZAR,NEAR COMMUNITY HALL,"SubCentre, Sudimalla",SubCentre,17.5771178,80.3413696,Rural,Functional,Private - for profit
Telangana,Hyderabad,Bahadurpura,Achi Reddy Nagar Hyderabad,Achi Reddy Nagar,Nawab Saheb Kunta,"Achireddy Nagar CH, Nawabsabkunta, Falaknuma(Basti Dawaskhana)",Urban health and wellness center (UHWC),17.3355109,78.4602749,Urban,Functional,State Government
Telangana,Hyderabad,Saidabad,"Aganwadi Centre, Wahednagar","Aganwadi Centre, Wahednagar","Aganwadi Centre, Wahednagar","Aganwadi Centre, Wahednagar (Basthi Dawakhana)",Urban health and wellness center (UHWC),17.36172,78.47517,Urban,Functional,State Government
Telangana,Hyderabad,Golconda,Tolichowki,"Akberpura,",Tolichowki,"Akberpura, Tolichowki (Basthi Dawakhana)",Urban health and wellness center (UHWC),17.39751,78.41879,Urban,Functional,State Government
Telangana,Hyderabad,Bahadurpura,"Hyderabad, Telangana 500264","Mahmood Nagar, Kishan Bagh, Hyderabad, Telangana 500264",,Allahmajid CH (Basthi Dawakhana),Urban health and wellness center (UHWC),17.354973,78.442363,Urban,Functional,State Government
Telangana,Hyderabad,Khairatabad,Sanathnagar,Sanathnagar,Opp. Sanathnagar Police Station,Allauddin Koti (Basthi Dawakhana),Urban health and wellness center (UHWC),17.452655,78.442809,Urban,Functional,State Government
Telangana,Hyderabad,Charminar,Charminar,Aman nagar,Aman nagar,Aman nagar (Basthi Dawakhana),Urban health and wellness center (UHWC),17.347306,78.471381,Urban,Functional,State Government
Telangana,Hyderabad,Secunderabad,"Ambanagar, Jamisthapur, Secendrabad","Ambanagar, Jamisthapur, Secendrabad","Ambanagar, Jamisthapur, Secendrabad","Ambanagar, Jamisthapur, Secendrabad (Basthi Dawakhana)",Urban health and wellness center (UHWC),17.473108,78.500461,Urban,Functional,State Government
Telangana,Hyderabad,Khairatabad,"Hyderabad, Telangana 500073","Sri Nagar Colony,",,"Ambika Mahila Mandali, Jubliee Hills (Basti Dawakhana)",Urban health and wellness center (UHWC),17.425726,78.426186,Urban,Functional,State Government
Telangana,Hyderabad,Saidabad,"Anand nagar, Mahila Mandali, Akberbagh, Malakpet","Anand nagar, Mahila Mandali, Akberbagh, Malakpet","Anand nagar, Mahila Mandali, Akberbagh, Malakpet","Anand nagar, Mahila Mandali, Akberbagh, Malakpet (Basthi Dawakhana)",Urban health and wellness center (UHWC),17.365539,78.507459,Urban,Functional,State Government
Telangana,Hyderabad,Saidabad,"Anganwadi Centre, Papaiah Basthi","Anganwadi Centre, Papaiah Basthi","Anganwadi Centre, Papaiah Basthi","Anganwadi Centre, Papaiah Basthi (Basthi Dawakhana)",Urban health and wellness center (UHWC),17.372666,78.491151,Urban,Functional,State Government
Telangana,Hyderabad,Golconda,Fort Road Golconda,Golconda,Golconda,"Area Hospital, Golconda",Sub-District Hospital,17.397391,78.429363,Urban,Functional,State Government
Telangana,Hyderabad,Amberpet,Malakpet,Near Nalgonda &#39;X&#39; road,Near Nalgonda &#39;X&#39; road,"Area Hospital, Malakpet",Sub-District Hospital,17.3726964,78.4990804,Urban,Functional,State Government
Telangana,Hyderabad,Nampally,Near Bazarghat &#39;X&#39; roads,Habeebnagar,Habeebnagar,"Area Hospital, Nampally",Sub-District Hospital,17.3922731,78.4632945,Urban,Functional,State Government
Telangana,Hyderabad,Bandlaguda,Chandrayangutta,"Arundathi Colony,",Chandrayangutta,"Arundathi Colony, Chandrayangutta (Basthi Dawakhana)",Urban health and wellness center (UHWC),17.323483,78.481025,Urban,Functional,State Government
Telangana,Hyderabad,Musheerabad,Gandhi nagar.,Gandhi nagar.,"Opp. Eswari bai hospital, Gandhi nagar.","Arundathi Nagar, Gandi Nagar (Basthi Dawakhana)",Urban health and wellness center (UHWC),17.24348,78.29123,Urban,Functional,State Government
Telangana,Hyderabad,Khairatabad,Borabanda,Borabanda,Borabanda,Baba Sailani Nagar (Basthi Dawakhana),Urban health and wellness center (UHWC),17.452576,78.408024,Urban,Functional,State Government
Telangana,Hyderabad,Charminar,"Dabeerpura, Hyderabad",Royal Colony,"Chavni, Dabeerpura","Bagh-e-Jhara, Chavni, Malakpet (Basti Dawakhana)",Urban health and wellness center (UHWC),17.3640278,78.4963278,Urban,Functional,State Government
Telangana,Hyderabad,Bandlaguda,Baba nagar,Baba nagar,Baba nagar,Bahadur Yar Jung (Basthi Dawakhana),Urban health and wellness center (UHWC),17.374066,78.483681,Urban,Functional,State Government
Telangana,Hyderabad,Musheerabad,Bakaram,Bakaram.,"near Segarlal hospital, Bakaram.",Bakaram (Basthi Dawakhana),Urban health and wellness center (UHWC),17.24557,78.30015,Urban,Functional,State Government
Telangana,Hyderabad,Saidabad,Malakpet,Malakpet,Malakpet,Balamma Danamma (Basthi Dawakhana),Urban health and wellness center (UHWC),17.352112,78.531286,Urban,Functional,State Government
Telangana,Hyderabad,Bahadurpura,Malakpet,"Dabeerpura,",Balashetty Kheth Play Ground,"Balashetty Kheth Play Ground Dabeerpura, Malakpet(Basti Dwakhana)",Urban health and wellness center (UHWC),17.369381,78.484825,Urban,Functional,State Government
Telangana,Hyderabad,Secunderabad,"Secunderabad, Telangana 500003","Gandhi Nagar, Bhoiguda,",,"Bapujinagar community hall, (Basti Dawakhana)",Urban health and wellness center (UHWC),17.426931,78.497383,Urban,Functional,State Government
Telangana,Hyderabad,Musheerabad,"Hyderabad, Telangana 500080","Bhagyalaxmi Nagar, Kavadiguda,",,"Bheema Maidan CH., Kavadiguda,Secbad (Basti Dawakhana)",Urban health and wellness center (UHWC),17.420136,78.490201,Urban,Functional,State Government
Telangana,Hyderabad,Shaikpet,Shaikpet,Shaikpet,Shaikpet,"BJR Nagar, Shaikpet (Basthi Dawakhana)",Urban health and wellness center (UHWC),17.26318,78.32141,Urban,Functional,State Government
Telangana,Hyderabad,Bahadurpura,"Hyderabad, Telangana 500086","Bandlaguda Jagir,",,"Bondalaguda CH,Doodbowli, Falknuma (Basti Dawakhana)",Urban health and wellness center (UHWC),17.350981,78.378328,Urban,Functional,State Government
Telangana,Hyderabad,Khairatabad,"Begumpet, Hyderabad, Telangana","Hussain Nagar Colony,","B.S Maqta, Kundanbagh Colony,","BS Maqtha Community Hall, Hyderabad(Basti Dwakhana)",Urban health and wellness center (UHWC),17.429802,78.460014,Urban,Functional,State Government
Telangana,Hyderabad,Secunderabad,Sanathnagar,Sanathnagar,Sanathnagar,"CC Nagar, Bharath compound (Basthi Dawakhana)",Urban health and wellness center (UHWC),17.40387,78.445692,Urban,Functional,State Government
Telangana,Hyderabad,Secunderabad,Sanathnagar,Sanathnagar,Sanathnagar,"CC Nagar, Hyderbasthi, Sambamoorthi nagar (Basthi Dawakhana)",Urban health and wellness center (UHWC),17.25395,78.29414,Urban,Functional,State Government
Telangana,Hyderabad,Secunderabad,Bholakpur,Bholakpur,Bholakpur,Cha Cha Nehru Nagar (Basthi Dawakhana),Urban health and wellness center (UHWC),17.426586,78.499191,Urban,Functional,State Government
Telangana,Hyderabad,Bahadurpura,"Challapura Gymnasium, Puranapool","Challapura Gymnasium, Puranapool","Challapura Gymnasium, Puranapool","Challapura Gymnasium, Puranapool (Basthi Dawakhana)",Urban health and wellness center (UHWC),17.373649,78.467376,Urban,Functional,State Government
Telangana,Hyderabad,Nampally,"Jamini Colony, Azamabad",Jamini Colony,,"Chandrakiran Basti Community Hall ,Dhoolpet (Basti Dawakhana)",Urban health and wellness center (UHWC),17.4107757,78.5039019,Urban,Functional,State Government
Telangana,Hyderabad,Secunderabad,"Chapalbai , Mondamarket, Secendrabad (","Chapalbai , Mondamarket, Secendrabad (","Chapalbai , Mondamarket, Secendrabad (","Chapalbai , Mondamarket, Secendrabad (Basthi Dawakhana)",Urban health and wellness center (UHWC),17.434956,78.497778,Urban,Functional,State Government
Telangana,Hyderabad,Khairatabad,Taj Enclave,6-1-968,Taj Enclave,CHC KHAIRATABAD,Community Health Center,17.4448,78.4219,Urban,Functional,State Government
Telangana,Hyderabad,Marredpally,Mettuguda,"Chinth Bai CH,",Mettuguda,"Chinth Bai CH, Mettuguda (Basthi Dawakhana)",Urban health and wellness center (UHWC),17.43524,78.53952,Urban,Functional,State Government
Telangana,Hyderabad,Bahadurpura,"Manikonda Jagir, Hyderabad",Tanasha Nagar,Dream Valley,Chiragali Community Hall (Basti Dawakhgana),Urban health and wellness center (UHWC),17.4014964,78.3901288,Urban,Functional,State Government
Telangana,Hyderabad,Amberpet,Amberpet,"MCH, colony","MCH, colony","Community Health Centre, AMBERPET",Community Health Center,17.39229,78.51784,Urban,Functional,State Government
Telangana,Hyderabad,Bandlaguda,Barkas,OPP:CRPF play ground,OPP:CRPF play ground,"Community Health Centre, BARKAS",Community Health Center,17.31441,78.483241,Urban,Functional,State Government
Telangana,Hyderabad,Charminar,Jangammet,Near Govt. Jr.College,Near Govt. Jr.College,"Community Health Centre, Jangammet",Community Health Center,17.334248,78.469866,Urban,Functional,State Government
Telangana,Hyderabad,Marredpally,Lalapet,Lane opposite Ram theatre,Lane opposite Ram theatre,"Community Health Centre, Lalapet",Community Health Center,17.438865,78.541595,Urban,Functional,State Government
Telangana,Hyderabad,Asif Nagar,Karwan,Pannipura,Pannipura,"Community Health Centre, Panipura",Community Health Center,17.3732304,78.4464665,Urban,Functional,State Government
Telangana,Hyderabad,Musheerabad,TRT Quarters,Seethaphalmandi,Seethaphalmandi,"Community Health Centre, Seethaphalmandi",Community Health Center,17.4267948,78.5193163,Urban,Functional,State Government
Telangana,Hyderabad,Khairatabad,opp Rajeev Nagar,Sriram Nagar,Sriram Nagar,"Community Health Centre, Sriramnagar",Community Health Center,17.44919038,78.42292496,Urban,Functional,State Government
Telangana,Hyderabad,Charminar,Hari bowli,Bela Street,Bela Street,"Community Health Centre, Surajbhan Baghvathi Maternity Hospital",Community Health Center,17.3695106,78.4763801,Urban,Functional,State Government
Telangana,Hyderabad,Nampally,Dabeerpura,Chadarghat,Dabeerpura Railway station,"Community Health Centre,Dabeerpura",Community Health Center,17.365588,78.485669,Urban,Functional,State Government
Telangana,Hyderabad,Secunderabad,"Sanathnagar,","Sanathnagar,","Sanathnagar,",Customs Basti (Basthi Dawakhana),Urban health and wellness center (UHWC),17.355949,78.460166,Urban,Functional,State Government
Telangana,Hyderabad,Charminar,"Gowlipura, Hyderabad, Telangana","Gowlipura,",,"Dharabjungally Community Hall,Charminar, Hyderabad(Basti Dwakhana)",Urban health and wellness center (UHWC),17.352634,78.481178,Urban,Functional,State Government
Telangana,Hyderabad,Nampally,King Koti,King Koti,Near King Koti Palace,"District Hospital, King Koti",District Hospital,17.393265,78.482152,Urban,Functional,State Government
Telangana,Hyderabad,Marredpally,Khairtabad,Central Secretariat,Central Secretariat,Dood Bavi (Basti Dawakhana),Urban health and wellness center (UHWC),17.4082122,78.469872,Urban,Functional,State Government
Telangana,Hyderabad,Marredpally,Eastmaredpally,"Rail Nilaam, Eastmaredpally","Rail Nilaam,","Dr.Ambedkar Nagar, Railnilayam (Basthi Dawakhana)",Urban health and wellness center (UHWC),17.437591,78.54406,Urban,Functional,State Government
Telangana,Hyderabad,Saidabad,"Hyderabad, Telangana","Malakpet,",,"Dr.Zakir hussain community hall, Saidabad (Basti Dawakhana)",Urban health and wellness center (UHWC),17.361686,78.507116,Urban,Functional,State Government
Telangana,Hyderabad,Musheerabad,"Secunderbad, Telangana 500080","Kavadiguda,",,"DS Nagar, Kavadiguda Musheerabad (Basti Dawakhana)",Urban health and wellness center (UHWC),17.420964,78.497633,Urban,Functional,State Government
Telangana,Hyderabad,Bandlaguda,"Hyderabad, Telangana 500005","Mohammed Nagar, Chandrayangutta",,"EWS colony, CH, Mohammed Nagar (Basti Dawakhana)",Urban health and wellness center (UHWC),17.300203,78.465576,Urban,Functional,State Government
Telangana,Hyderabad,Bahadurpura,Begumpet,Begumpet,Begumpet,"Fathima Nagar , Chandrayanagutta (Basthi Dawakhana)",Urban health and wellness center (UHWC),17.375657,78.471238,Urban,Functional,State Government
Telangana,Hyderabad,Saidabad,Gaddi annaram,Sai Nagar Road,Mahila Mandali,Gaddiannaram (Basti Dawakhana),Urban health and wellness center (UHWC),17.36698172,78.52561712,Urban,Functional,State Government
Telangana,Hyderabad,Nampally,"Hyderabad, Telangana 500012","Goshamahal, Nampally,","Gadi Community Hall, Goshamahal","Gadikhana Community Hall, Goshamahal (Basthi Dawakhana)",Urban health and wellness center (UHWC),17.377668,78.464156,Urban,Functional,State Government
Telangana,Hyderabad,Musheerabad,Musheerbad,Gandhi Hospital,Near Musheerbad &#34;X&#34; Roads,Gandhi Hospital,Medical Colleges Hospital,17.4232244,78.5041444,Urban,Functional,State Government
Telangana,Hyderabad,Nampally,GHMC Community Hall HanumanTekdi Goshamahal,GHMC Community Hall HanumanTekdi Goshamahal,GHMC Community Hall HanumanTekdi Goshamahal,GHMC Community Hall HanumanTekdi Goshamahal (Basthi Dawakhana),Urban health and wellness center (UHWC),17.376179,78.468337,Urban,Functional,State Government
Telangana,Hyderabad,Bandlaguda,Balagunj,Balagunj,Balagunj,GM Chowni (Basthi Dawakhana),Urban health and wellness center (UHWC),17.391653,78.498984,Urban,Functional,State Government
